$GPGSA,A,3,10,02,25,29,30,31,12,16,21,05,,,1.4,0.8,1.2*30
$GPRMC,233108.000,A,4740.6409,N,12224.5729,W,1.59,284.95,211010,,,A*79
$GPGGA,233109.000,4740.6410,N,12224.5736,W,1,10,0.8,-0.9,M,-17.3,M,,0000*45
$GPGSA,A,3,10,02,25,29,30,31,12,16,21,05,,,1.4,0.8,1.2*30
$GPGSV,3,1,12,29,80,317,41,05,53,081,40,30,49,220,44,25,41,197,42*70
$GPGSV,3,2,12,21,35,250,28,10,18,042,35,02,17,067,35,12,14,171,39*73
$GPGSV,3,3,12,31,10,276,41,16,09,324,28,26,03,117,,18,02,199,*74
$GPRMC,233109.000,A,4740.6410,N,12224.5736,W,1.77,284.04,211010,,,A*7A
$GPGGA,233110.000,4740.6412,N,12224.5743,W,1,10,0.8,-1.0,M,-17.3,M,,0000*45
$GPGSA,A,3,10,02,25,29,30,31,12,16,21,05,,,1.4,0.8,1.2*30
$GPRMC,233110.000,A,4740.6412,N,12224.5743,W,1.91,283.54,211010,,,A*78
$GPGGA,233111.000,4740.6413,N,12224.5751,W,1,09,0.9,-0.9,M,-17.3,M,,0000*47
EPOCH
1287703871
$GPRMC,233111.000,A,4740.6413,N,12224.5751,W,2.02,281.82,211010,,,A*7B
$GPGGA,233112.000,4740.6414,N,12224.5760,W,1,09,0.9,-0.9,M,-17.3,M,,0000*41
$GPGSA,A,3,10,25,29,30,31,12,16,21,05,,,,1.5,0.9,1.2*32
$GPRMC,233112.000,A,4740.6414,N,12224.5760,W,2.12,280.29,211010,,,A*7C
$GPGGA,233113.000,4740.6415,N,12224.5769,W,1,10,0.8,-0.9,M,-17.3,M,,0000*41
$GPGSA,A,3,10,02,25,29,30,31,12,16,21,05,,,1.4,0.8,1.2*30
$GPRMC,233113.000,A,4740.6415,N,12224.5769,W,2.33,279.25,211010,,,A*7C
$GPGGA,233114.000,4740.6416,N,12224.5779,W,1,10,0.8,-0.8,M,-17.3,M,,0000*45
$GPGSA,A,3,10,02,25,29,30,31,12,16,21,05,,,1.4,0.8,1.2*30
$GPGSV,3,1,12,29,80,317,42,05,53,081,40,30,49,220,43,25,41,197,41*77
$GPGSV,3,2,12,21,35,250,32,10,18,042,34,02,17,067,32,12,14,171,40*70
$GPGSV,3,3,12,31,10,276,32,16,09,324,29,26,03,117,,18,02,199,*71
EPOCH
1287703875
$GPGGA,233115.000,4740.6416,N,12224.5789,W,1,10,0.8,-0.7,M,-17.3,M,,0000*44
$GPGSA,A,3,10,02,25,29,30,31,12,16,21,05,,,1.4,0.8,1.2*30
$GPRMC,233115.000,A,4740.6416,N,12224.5789,W,2.47,275.31,211010,,,A*7D
$GPGGA,233116.000,4740.6417,N,12224.5799,W,1,10,0.8,-0.6,M,-17.3,M,,0000*46
$GPGSA,A,3,10,02,25,29,30,31,12,16,21,05,,,1.4,0.8,1.2*30
$GPRMC,233116.000,A,4740.6417,N,12224.5799,W,2.52,273.99,211010,,,A*7E
$GPGGA,233117.000,4740.6418,N,12224.5810,W,1,10,0.8,-0.6,M,-17.3,M,,0000*46
$GPGSA,A,3,10,02,25,29,30,31,12,16,21,05,,,1.4,0.8,1.2*30
$GPRMC,233117.000,A,4740.6418,N,12224.5810,W,2.67,274.65,211010,,,A*7C
$GPGGA,233118.000,4740.6418,N,12224.5822,W,1,10,0.8,-0.6,M,-17.3,M,,0000*48
$GPGSA,A,3,10,02,25,29,30,31,12,16,21,05,,,1.4,0.8,1.2*30
$GPRMC,233118.000,A,4740.6418,N,12224.5822,W,2.80,274.32,211010,,,A*79
EPOCH
1287703879
$GPGSA,A,3,10,02,25,29,30,31,12,16,21,05,,,1.4,0.8,1.2*30
$GPGSV,3,1,12,29,80,317,43,05,53,081,35,30,49,220,43,25,41,197,40*75
$GPGSV,3,2,12,21,35,250,33,10,18,042,34,02,17,067,33,12,14,171,40*70
$GPGSV,3,3,12,31,10,276,26,16,09,324,34,26,03,117,,18,02,199,*78
$GPRMC,233119.000,A,4740.6419,N,12224.5833,W,2.83,273.68,211010,,,A*72
$GPGGA,233120.000,4740.6419,N,12224.5846,W,1,10,0.8,-0.5,M,-17.3,M,,0000*43
$GPGSA,A,3,10,02,25,29,30,31,12,16,21,05,,,1.4,0.8,1.2*30
$GPRMC,233120.000,A,4740.6419,N,12224.5846,W,3.01,273.70,211010,,,A*78
$GPGGA,233121.000,4740.6420,N,12224.5859,W,1,10,0.8,-0.3,M,-17.3,M,,0000*40
$GPGSA,A,3,10,02,25,29,30,31,12,16,21,05,,,1.4,0.8,1.2*30
$GPRMC,233121.000,A,4740.6420,N,12224.5859,W,3.01,274.59,211010,,,A*71
$GPGGA,233122.000,4740.6420,N,12224.5871,W,1,10,0.8,-0.2,M,-17.3,M,,0000*48
EPOCH
1287703882
$GPRMC,233122.000,A,4740.6420,N,12224.5871,W,3.06,273.50,211010,,,A*71
$GPGGA,233123.000,4740.6421,N,12224.5884,W,1,10,0.8,-0.2,M,-17.3,M,,0000*42
$GPGSA,A,3,10,02,25,29,30,31,12,16,21,05,,,1.4,0.8,1.2*30
$GPRMC,233123.000,A,4740.6421,N,12224.5884,W,3.06,272.78,211010,,,A*70
$GPGGA,233124.000,4740.6421,N,12224.5897,W,1,10,0.8,-0.1,M,-17.3,M,,0000*44
$GPGSA,A,3,10,02,25,29,30,31,12,16,21,05,,,1.4,0.8,1.2*30
$GPGSV,3,1,12,29,80,317,43,05,53,081,35,30,49,220,42,25,41,197,40*74
$GPGSV,3,2,12,21,35,250,33,10,18,042,32,02,17,067,34,12,14,171,41*70
$GPGSV,3,3,12,31,10,276,25,16,09,324,34,26,03,117,,18,02,199,*7B
$GPRMC,233124.000,A,4740.6421,N,12224.5897,W,3.12,272.93,211010,,,A*75
$GPGGA,233125.000,4740.6422,N,12224.5910,W,1,10,0.8,-0.1,M,-17.3,M,,0000*48
$GPGSA,A,3,10,02,25,29,30,31,12,16,21,05,,,1.4,0.8,1.2*30
EPOCH
1287703885
$GPGGA,233126.000,4740.6423,N,12224.5924,W,1,10,0.8,-0.1,M,-17.3,M,,0000*4D
$GPGSA,A,3,10,02,25,29,30,31,12,16,21,05,,,1.4,0.8,1.2*30
$GPRMC,233126.000,A,4740.6423,N,12224.5924,W,3.20,277.08,211010,,,A*7A
$GPGGA,233127.000,4740.6424,N,12224.5937,W,1,10,0.8,-0.1,M,-17.3,M,,0000*49
$GPGSA,A,3,10,02,25,29,30,31,12,16,21,05,,,1.4,0.8,1.2*30
$GPRMC,233127.000,A,4740.6424,N,12224.5937,W,3.27,280.39,211010,,,A*73
$GPGGA,233128.000,4740.6426,N,12224.5951,W,1,10,0.8,-0.1,M,-17.3,M,,0000*44
$GPGSA,A,3,10,02,25,29,30,31,12,16,21,05,,,1.4,0.8,1.2*30
$GPRMC,233128.000,A,4740.6426,N,12224.5951,W,3.20,282.70,211010,,,A*76
$GPGGA,233129.000,4740.6428,N,12224.5964,W,1,10,0.8,-0.1,M,-17.3,M,,0000*4D
$GPGSA,A,3,10,02,25,29,30,31,12,16,21,05,,,1.4,0.8,1.2*30
$GPGSV,3,1,12,29,80,317,43,05,53,081,39,30,49,220,42,25,41,197,41*79
EPOCH
1287703889
$GPGSV,3,3,12,31,10,276,40,16,09,324,35,26,03,117,13,18,02,199,*7B
$GPRMC,233129.000,A,4740.6428,N,12224.5964,W,3.26,284.12,211010,,,A*7B
$GPGGA,233130.000,4740.6431,N,12224.5976,W,1,10,0.8,-0.0,M,-17.3,M,,0000*4F
$GPGSA,A,3,10,02,25,29,30,31,12,16,21,05,,,1.4,0.8,1.2*30
$GPRMC,233130.000,A,4740.6431,N,12224.5976,W,3.18,288.25,211010,,,A*7D
$GPGGA,233131.000,4740.6434,N,12224.5988,W,1,10,0.8,0.1,M,-17.3,M,,0000*66
$GPGSA,A,3,10,02,25,29,30,31,12,16,21,05,,,1.4,0.8,1.2*30
$GPRMC,233131.000,A,4740.6434,N,12224.5988,W,3.38,290.44,211010,,,A*74
$GPGGA,233132.000,4740.6438,N,12224.6001,W,1,10,0.8,0.1,M,-17.3,M,,0000*62
$GPGSA,A,3,10,02,25,29,30,31,12,16,21,05,,,1.4,0.8,1.2*30
$GPRMC,233132.000,A,4740.6438,N,12224.6001,W,3.47,293.28,211010,,,A*71
$GPGGA,233133.000,4740.6442,N,12224.6013,W,1,10,0.8,0.2,M,-17.3,M,,0000*6E
EPOCH
1287703893
$GPRMC,233133.000,A,4740.6442,N,12224.6013,W,3.52,295.66,211010,,,A*76
$GPGGA,233134.000,4740.6446,N,12224.6025,W,1,10,0.8,0.2,M,-17.3,M,,0000*68
$GPGSA,A,3,10,02,25,29,30,31,12,16,21,05,,,1.4,0.8,1.2*30
$GPGSV,3,1,12,29,80,317,36,05,53,081,33,30,49,220,42,25,41,197,43*73
$GPGSV,3,2,12,21,35,250,38,10,18,042,38,02,17,067,30,12,14,171,37*74
$GPGSV,3,3,12,31,10,276,40,16,09,324,37,26,03,117,,18,02,199,17*7D
$GPRMC,233134.000,A,4740.6446,N,12224.6025,W,3.54,299.00,211010,,,A*7A
$GPGGA,233135.000,4740.6451,N,12224.6038,W,1,10,0.8,0.2,M,-17.3,M,,0000*63
$GPGSA,A,3,10,02,25,29,30,31,12,16,21,05,,,1.4,0.8,1.2*30
$GPRMC,233135.000,A,4740.6451,N,12224.6038,W,3.70,299.80,211010,,,A*7F
$GPGGA,233136.000,4740.6457,N,12224.6051,W,1,10,0.8,0.3,M,-17.3,M,,0000*68
$GPGSA,A,3,10,02,25,29,30,31,12,16,21,05,,,1.4,0.8,1.2*30
EPOCH
1287703896
$GPGGA,233137.000,4740.6463,N,12224.6062,W,1,10,0.8,0.4,M,-17.3,M,,0000*69
$GPGSA,A,3,10,02,25,29,30,31,12,16,21,05,,,1.4,0.8,1.2*30
$GPRMC,233137.000,A,4740.6463,N,12224.6062,W,3.67,307.10,211010,,,A*7A
$GPGGA,233138.000,4740.6469,N,12224.6074,W,1,10,0.8,0.5,M,-17.3,M,,0000*6A
$GPGSA,A,3,10,02,25,29,30,31,12,16,21,05,,,1.4,0.8,1.2*30
$GPRMC,233138.000,A,4740.6469,N,12224.6074,W,3.88,308.33,211010,,,A*77
$GPGGA,233139.000,4740.6476,N,12224.6086,W,1,10,0.8,0.4,M,-17.3,M,,0000*69
$GPGSA,A,3,10,02,25,29,30,31,12,16,21,05,,,1.4,0.8,1.2*30
$GPGSV,3,1,12,29,80,317,35,05,53,081,35,30,49,220,39,25,41,197,39*77
$GPGSV,3,2,12,21,35,250,39,10,18,042,39,02,17,067,34,12,14,171,28*7E
$GPGSV,3,3,12,31,10,276,33,16,09,324,31,26,03,117,,18,02,199,22*79
$GPRMC,233139.000,A,4740.6476,N,12224.6086,W,3.85,310.99,211010,,,A*71
EPOCH
1287703900
$GPGSA,A,3,10,02,25,29,30,31,12,16,21,05,,,1.4,0.8,1.2*30
$GPRMC,233140.000,A,4740.6484,N,12224.6098,W,4.07,313.50,211010,,,A*76
$GPGGA,233141.000,4740.6492,N,12224.6110,W,1,10,0.8,0.3,M,-17.3,M,,0000*65
$GPGSA,A,3,10,02,25,29,30,31,12,16,21,05,,,1.4,0.8,1.2*30
$GPRMC,233141.000,A,4740.6492,N,12224.6110,W,4.08,316.29,211010,,,A*75
$GPGGA,233142.000,4740.6501,N,12224.6122,W,1,10,0.8,0.3,M,-17.3,M,,0000*6C
$GPGSA,A,3,10,02,25,29,30,31,12,16,21,05,,,1.4,0.8,1.2*30
$GPRMC,233142.000,A,4740.6501,N,12224.6122,W,4.16,319.04,211010,,,A*73
$GPGGA,233143.000,4740.6510,N,12224.6133,W,1,10,0.8,0.1,M,-17.3,M,,0000*6F
$GPGSA,A,3,10,02,25,29,30,31,12,16,21,05,,,1.4,0.8,1.2*30
$GPRMC,233143.000,A,4740.6510,N,12224.6133,W,4.08,321.59,211010,,,A*7E
$GPGGA,233144.000,4740.6519,N,12224.6143,W,1,10,0.8,0.1,M,-17.3,M,,0000*66
EPOCH
1287703904
$GPGSV,3,1,12,29,80,317,34,05,53,081,41,30,49,220,27,25,41,197,43*77
$GPGSV,3,2,12,21,35,250,29,10,18,042,33,02,17,067,35,12,14,171,27*7B
$GPGSV,3,3,12,31,10,276,41,16,09,324,23,26,03,117,,18,02,199,23*7E
$GPRMC,233144.000,A,4740.6519,N,12224.6143,W,4.16,324.57,211010,,,A*73
$GPGGA,233145.000,4740.6529,N,12224.6153,W,1,10,0.8,0.0,M,-17.3,M,,0000*64
$GPGSA,A,3,10,02,25,29,30,31,12,16,21,05,,,1.4,0.8,1.2*30
$GPRMC,233145.000,A,4740.6529,N,12224.6153,W,4.26,325.81,211010,,,A*79
$GPGGA,233146.000,4740.6539,N,12224.6163,W,1,10,0.8,-0.0,M,-17.3,M,,0000*48
$GPGSA,A,3,10,02,25,29,30,31,12,16,21,05,,,1.4,0.8,1.2*30
$GPRMC,233146.000,A,4740.6539,N,12224.6163,W,4.25,326.20,211010,,,A*73
$GPGGA,233147.000,4740.6549,N,12224.6173,W,1,10,0.8,-0.1,M,-17.3,M,,0000*4E
$GPGSA,A,3,10,02,25,29,30,31,12,16,21,05,,,1.4,0.8,1.2*30
EPOCH
1287703907
$GPGGA,233148.000,4740.6559,N,12224.6183,W,1,10,0.8,-0.1,M,-17.3,M,,0000*4F
$GPGSA,A,3,10,02,25,29,30,31,12,16,21,05,,,1.4,0.8,1.2*30
$GPRMC,233148.000,A,4740.6559,N,12224.6183,W,4.31,326.28,211010,,,A*78
$GPGGA,233149.000,4740.6569,N,12224.6193,W,1,10,0.8,-0.2,M,-17.3,M,,0000*4F
$GPGSA,A,3,10,02,25,29,30,31,12,16,21,05,,,1.4,0.8,1.2*30
$GPGSV,3,1,12,29,80,318,30,05,53,081,40,30,49,220,26,25,40,196,44*7B
$GPGSV,3,2,12,21,36,250,37,10,18,042,31,02,16,067,35,12,13,171,36*73
$GPGSV,3,3,12,31,10,275,42,16,09,324,25,26,03,116,,18,02,199,25*7F
$GPRMC,233149.000,A,4740.6569,N,12224.6193,W,4.30,326.48,211010,,,A*7C
$GPGGA,233150.000,4740.6579,N,12224.6202,W,1,10,0.8,-0.3,M,-17.3,M,,0000*4C
$GPGSA,A,3,10,02,25,29,30,31,12,16,21,05,,,1.4,0.8,1.2*30
$GPRMC,233150.000,A,4740.6579,N,12224.6202,W,4.33,327.06,211010,,,A*76
EPOCH
1287703911
$GPGSA,A,3,10,02,25,29,30,31,12,16,21,05,,,1.4,0.8,1.2*30
$GPRMC,233151.000,A,4740.6590,N,12224.6212,W,4.35,327.46,211010,,,A*73
$GPGGA,233152.000,4740.6600,N,12224.6222,W,1,10,0.8,-0.3,M,-17.3,M,,0000*41
$GPGSA,A,3,10,02,25,29,30,31,12,16,21,05,,,1.4,0.8,1.2*30
$GPRMC,233152.000,A,4740.6600,N,12224.6222,W,4.36,327.90,211010,,,A*71
$GPGGA,233153.000,4740.6610,N,12224.6232,W,1,10,0.8,-0.4,M,-17.3,M,,0000*47
$GPGSA,A,3,10,02,25,29,30,31,12,16,21,05,,,1.4,0.8,1.2*30
$GPRMC,233153.000,A,4740.6610,N,12224.6232,W,4.37,327.64,211010,,,A*7A
$GPGGA,233154.000,4740.6621,N,12224.6242,W,1,10,0.8,-0.4,M,-17.3,M,,0000*45
$GPGSA,A,3,10,02,25,29,30,31,12,16,21,05,,,1.4,0.8,1.2*30
$GPGSV,3,1,12,29,80,318,29,05,53,081,39,30,49,220,30,25,40,196,45*7B
$GPGSV,3,2,12,21,36,250,37,10,18,042,27,02,16,067,37,12,13,171,36*76
EPOCH
1287703914
$GPRMC,233154.000,A,4740.6621,N,12224.6242,W,4.39,327.16,211010,,,A*73
$GPGGA,233155.000,4740.6631,N,12224.6252,W,1,10,0.8,-0.5,M,-17.3,M,,0000*45
$GPGSA,A,3,10,02,25,29,30,31,12,16,21,05,,,1.4,0.8,1.2*30
$GPRMC,233155.000,A,4740.6631,N,12224.6252,W,4.40,327.08,211010,,,A*73
$GPGGA,233156.000,4740.6641,N,12224.6262,W,1,10,0.8,-0.5,M,-17.3,M,,0000*42
$GPGSA,A,3,10,02,25,29,30,31,12,16,21,05,,,1.4,0.8,1.2*30
$GPRMC,233156.000,A,4740.6641,N,12224.6262,W,4.42,326.64,211010,,,A*7D
$GPGGA,233157.000,4740.6651,N,12224.6272,W,1,10,0.8,-0.5,M,-17.3,M,,0000*43
$GPGSA,A,3,10,02,25,29,30,31,12,16,21,05,,,1.4,0.8,1.2*30
$GPRMC,233157.000,A,4740.6651,N,12224.6272,W,4.39,325.76,211010,,,A*70
$GPGGA,233158.000,4740.6662,N,12224.6282,W,1,10,0.8,-0.5,M,-17.3,M,,0000*43
$GPGSA,A,3,10,02,25,29,30,31,12,16,21,05,,,1.4,0.8,1.2*30
EPOCH
1287703918
$GPGGA,233159.000,4740.6672,N,12224.6292,W,1,10,0.8,-0.8,M,-17.3,M,,0000*4F
$GPGSA,A,3,10,02,25,29,30,31,12,16,21,05,,,1.4,0.8,1.2*30
$GPGSV,3,1,12,29,80,318,29,05,53,081,39,30,49,220,24,25,40,196,44*7F
$GPGSV,3,2,12,21,36,250,32,10,18,042,32,02,16,067,31,12,13,171,28*7E
$GPGSV,3,3,12,31,10,275,43,16,09,324,26,26,03,116,,18,02,199,18*73
$GPRMC,233159.000,A,4740.6672,N,12224.6292,W,4.38,326.37,211010,,,A*76
$GPGGA,233200.000,4740.6682,N,12224.6302,W,1,10,0.8,-0.9,M,-17.3,M,,0000*46
$GPGSA,A,3,10,02,25,29,30,31,12,16,21,05,,,1.4,0.8,1.2*30
$GPRMC,233200.000,A,4740.6682,N,12224.6302,W,4.44,324.84,211010,,,A*7F
$GPGGA,233201.000,4740.6692,N,12224.6313,W,1,10,0.8,-0.9,M,-17.3,M,,0000*46
$GPGSA,A,3,10,02,25,29,30,31,12,16,21,05,,,1.4,0.8,1.2*30
$GPRMC,233201.000,A,4740.6692,N,12224.6313,W,4.36,321.24,211010,,,A*75
EPOCH
1287703922
$GPGSA,A,3,10,02,25,29,30,31,12,16,21,05,,,1.4,0.8,1.2*30
$GPRMC,233202.000,A,4740.6702,N,12224.6325,W,4.42,321.49,211010,,,A*73
$GPGGA,233203.000,4740.6711,N,12224.6336,W,1,10,0.8,-1.1,M,-17.3,M,,0000*40
$GPGSA,A,3,10,02,25,29,30,31,12,16,21,05,,,1.4,0.8,1.2*30
$GPRMC,233203.000,A,4740.6711,N,12224.6336,W,4.34,318.08,211010,,,A*7C
$GPGGA,233204.000,4740.6720,N,12224.6348,W,1,10,0.8,-1.3,M,-17.3,M,,0000*4E
$GPGSA,A,3,10,02,25,29,30,31,12,16,21,05,,,1.4,0.8,1.2*30
$GPGSV,3,1,12,29,80,318,30,05,53,081,40,30,49,220,30,25,40,196,44*7C
$GPGSV,3,2,12,21,36,250,40,10,18,042,35,02,16,067,37,12,13,171,33*70
$GPGSV,3,3,12,31,10,275,42,16,09,324,32,26,03,116,,18,02,199,17*78
$GPRMC,233204.000,A,4740.6720,N,12224.6348,W,4.35,317.15,211010,,,A*72
$GPGGA,233205.000,4740.6729,N,12224.6360,W,1,10,0.8,-1.5,M,-17.3,M,,0000*4A
EPOCH
1287703925
$GPRMC,233205.000,A,4740.6729,N,12224.6360,W,4.38,315.92,211010,,,A*70
$GPGGA,233206.000,4740.6738,N,12224.6372,W,1,10,0.8,-1.5,M,-17.3,M,,0000*4A
$GPGSA,A,3,10,02,25,29,30,31,12,16,21,05,,,1.4,0.8,1.2*30
$GPRMC,233206.000,A,4740.6738,N,12224.6372,W,4.37,314.41,211010,,,A*70
$GPGGA,233207.000,4740.6745,N,12224.6385,W,1,10,0.8,-1.7,M,-17.3,M,,0000*4B
$GPGSA,A,3,10,02,25,29,30,31,12,16,21,05,,,1.4,0.8,1.2*30
$GPRMC,233207.000,A,4740.6745,N,12224.6385,W,3.86,310.04,211010,,,A*7B
$GPGGA,233208.000,4740.6753,N,12224.6398,W,1,10,0.8,-1.7,M,-17.3,M,,0000*4F
$GPGSA,A,3,10,02,25,29,30,31,12,16,21,05,,,1.4,0.8,1.2*30
$GPRMC,233208.000,A,4740.6753,N,12224.6398,W,4.35,308.48,211010,,,A*71
$GPGGA,233209.000,4740.6760,N,12224.6413,W,1,10,0.8,-1.6,M,-17.3,M,,0000*4B
$GPGSA,A,3,10,02,25,29,30,31,12,16,21,05,,,1.4,0.8,1.2*30
EPOCH
1287703929
$GPGSV,3,2,12,21,36,250,41,10,18,042,39,02,16,067,33,12,13,171,41*7C
$GPGSV,3,3,12,31,10,275,34,16,09,324,40,26,03,116,,18,02,199,*7A
$GPRMC,233209.000,A,4740.6760,N,12224.6413,W,4.37,304.68,211010,,,A*78
$GPGGA,233210.000,4740.6767,N,12224.6428,W,1,10,0.8,-1.7,M,-17.3,M,,0000*4D
$GPGSA,A,3,10,02,25,29,30,31,12,16,21,05,,,1.4,0.8,1.2*30
$GPRMC,233210.000,A,4740.6767,N,12224.6428,W,4.43,299.75,211010,,,A*75
$GPGGA,233211.000,4740.6773,N,12224.6445,W,1,10,0.8,-1.6,M,-17.3,M,,0000*43
$GPGSA,A,3,10,02,25,29,30,31,12,16,21,05,,,1.4,0.8,1.2*30
$GPRMC,233211.000,A,4740.6773,N,12224.6445,W,4.45,293.88,211010,,,A*74
$GPGGA,233212.000,4740.6778,N,12224.6463,W,1,10,0.8,-1.5,M,-17.3,M,,0000*4C
$GPGSA,A,3,10,02,25,29,30,31,12,16,21,05,,,1.4,0.8,1.2*30
$GPRMC,233212.000,A,4740.6778,N,12224.6463,W,4.50,288.72,211010,,,A*73
EPOCH
1287703933
$GPGSA,A,3,10,02,25,29,30,31,12,16,21,05,,,1.4,0.8,1.2*30
$GPRMC,233213.000,A,4740.6781,N,12224.6481,W,4.49,284.72,211010,,,A*7C
$GPGGA,233214.000,4740.6784,N,12224.6499,W,1,10,0.8,-1.4,M,-17.3,M,,0000*4D
$GPGSA,A,3,10,02,25,29,30,31,12,16,21,05,,,1.4,0.8,1.2*30
$GPGSV,3,1,12,29,80,318,43,05,53,081,39,30,49,220,44,25,40,196,40*71
$GPGSV,3,2,12,21,36,250,32,10,18,042,34,02,16,067,29,12,13,171,39*71
$GPGSV,3,3,12,31,10,275,35,16,09,324,33,26,03,116,,18,02,199,*7F
$GPRMC,233214.000,A,4740.6784,N,12224.6499,W,4.35,280.21,211010,,,A*7E
$GPGGA,233215.000,4740.6786,N,12224.6516,W,1,10,0.8,-1.3,M,-17.3,M,,0000*4F
$GPGSA,A,3,10,02,25,29,30,31,12,16,21,05,,,1.4,0.8,1.2*30
$GPRMC,233215.000,A,4740.6786,N,12224.6516,W,4.31,278.12,211010,,,A*78
$GPGGA,233216.000,4740.6788,N,12224.6533,W,1,10,0.8,-1.2,M,-17.3,M,,0000*44
EPOCH
1287703936
$GPRMC,233216.000,A,4740.6788,N,12224.6533,W,4.18,273.82,211010,,,A*7B
$GPGGA,233217.000,4740.6788,N,12224.6551,W,1,10,0.8,-1.0,M,-17.3,M,,0000*43
$GPGSA,A,3,10,02,25,29,30,31,12,16,21,05,,,1.4,0.8,1.2*30
$GPRMC,233217.000,A,4740.6788,N,12224.6551,W,4.28,271.43,211010,,,A*72
$GPGGA,233218.000,4740.6788,N,12224.6568,W,1,10,0.8,-0.9,M,-17.3,M,,0000*4E
$GPGSA,A,3,10,02,25,29,30,31,12,16,21,05,,,1.4,0.8,1.2*30
$GPRMC,233218.000,A,4740.6788,N,12224.6568,W,4.01,268.83,211010,,,A*78
$GPGGA,233219.000,4740.6787,N,12224.6586,W,1,10,0.8,-0.8,M,-17.3,M,,0000*41
$GPGSA,A,3,10,02,25,29,30,31,12,16,21,05,,,1.4,0.8,1.2*30
$GPGSV,3,1,12,29,80,318,43,05,53,080,30,30,49,220,37,25,40,196,44*79
$GPGSV,3,2,12,21,36,250,34,10,18,042,35,02,16,067,34,12,13,171,34*77
$GPGSV,3,3,12,31,09,275,27,16,09,324,34,26,03,116,21,18,03,199,*71
EPOCH
1287703940
$GPGGA,233220.000,4740.6785,N,12224.6604,W,1,10,0.8,-0.7,M,-17.3,M,,0000*4F
$GPGSA,A,3,10,02,25,29,30,31,12,16,21,05,,,1.4,0.8,1.2*30
$GPRMC,233220.000,A,4740.6785,N,12224.6604,W,4.53,259.75,211010,,,A*7B
$GPGGA,233221.000,4740.6782,N,12224.6624,W,1,10,0.8,-0.7,M,-17.3,M,,0000*4B
$GPGSA,A,3,10,02,25,29,30,31,12,16,21,05,,,1.4,0.8,1.2*30
$GPRMC,233221.000,A,4740.6782,N,12224.6624,W,4.48,255.93,211010,,,A*71
$GPGGA,233222.000,4740.6778,N,12224.6643,W,1,10,0.8,-0.6,M,-17.3,M,,0000*4D
$GPGSA,A,3,10,02,25,29,30,31,12,16,21,05,,,1.4,0.8,1.2*30
$GPRMC,233222.000,A,4740.6778,N,12224.6643,W,4.45,250.22,211010,,,A*74
$GPGGA,233223.000,4740.6774,N,12224.6661,W,1,10,0.8,-0.4,M,-17.3,M,,0000*42
$GPGSA,A,3,10,02,25,29,30,31,12,16,21,05,,,1.4,0.8,1.2*30
$GPRMC,233223.000,A,4740.6774,N,12224.6661,W,4.46,244.97,211010,,,A*71
EPOCH
1287703944
$GPGSA,A,3,10,02,25,29,30,31,12,16,21,05,,,1.4,0.8,1.2*30
$GPGSV,3,1,12,29,80,318,43,05,53,080,35,30,49,220,42,25,40,196,40*7A
$GPGSV,3,2,12,21,36,250,38,10,18,042,28,02,16,067,35,12,13,171,34*76
$GPGSV,3,3,12,31,09,275,32,16,09,324,31,26,03,116,,18,03,199,23*72
$GPRMC,233224.000,A,4740.6768,N,12224.6678,W,4.56,241.47,211010,,,A*7A
$GPGGA,233225.000,4740.6761,N,12224.6695,W,1,10,0.8,-0.4,M,-17.3,M,,0000*4B
$GPGSA,A,3,10,02,25,29,30,31,12,16,21,05,,,1.4,0.8,1.2*30
$GPRMC,233225.000,A,4740.6761,N,12224.6695,W,4.54,238.66,211010,,,A*7E
$GPGGA,233226.000,4740.6754,N,12224.6711,W,1,10,0.8,-0.5,M,-17.3,M,,0000*42
$GPGSA,A,3,10,02,25,29,30,31,12,16,21,05,,,1.4,0.8,1.2*30
$GPRMC,233226.000,A,4740.6754,N,12224.6711,W,4.51,234.77,211010,,,A*7F
$GPGGA,233227.000,4740.6747,N,12224.6726,W,1,10,0.8,-0.6,M,-17.3,M,,0000*46
EPOCH
1287703947
$GPRMC,233227.000,A,4740.6747,N,12224.6726,W,4.50,230.69,211010,,,A*72
$GPGGA,233228.000,4740.6738,N,12224.6741,W,1,10,0.8,-0.6,M,-17.3,M,,0000*40
$GPGSA,A,3,10,02,25,29,30,31,12,16,21,05,,,1.4,0.8,1.2*30
$GPRMC,233228.000,A,4740.6738,N,12224.6741,W,4.47,227.64,211010,,,A*79
$GPGGA,233229.000,4740.6730,N,12224.6754,W,1,10,0.8,-0.6,M,-17.3,M,,0000*4D
$GPGSA,A,3,10,02,25,29,30,31,12,16,21,05,,,1.4,0.8,1.2*30
$GPGSV,3,1,12,29,80,318,43,05,53,080,40,30,49,220,36,25,40,196,35*79
$GPGSV,3,2,12,21,36,250,39,10,18,042,32,02,16,067,30,12,13,171,43*79
$GPGSV,3,3,12,31,09,275,37,16,09,324,36,26,03,116,27,18,03,199,*74
$GPRMC,233229.000,A,4740.6730,N,12224.6754,W,4.42,222.49,211010,,,A*7B
$GPGGA,233230.000,4740.6720,N,12224.6766,W,1,10,0.8,-0.6,M,-17.3,M,,0000*45
$GPGSA,A,3,10,02,25,29,30,31,12,16,21,05,,,1.4,0.8,1.2*30
EPOCH
1287703950
$GPGGA,233231.000,4740.6711,N,12224.6777,W,1,10,0.8,-0.6,M,-17.3,M,,0000*46
$GPGSA,A,3,10,02,25,29,30,31,12,16,21,05,,,1.4,0.8,1.2*30
$GPRMC,233231.000,A,4740.6711,N,12224.6777,W,4.45,216.61,211010,,,A*7A
$GPGGA,233232.000,4740.6700,N,12224.6788,W,1,10,0.8,-0.6,M,-17.3,M,,0000*45
$GPGSA,A,3,10,02,25,29,30,31,12,16,21,05,,,1.4,0.8,1.2*30
$GPRMC,233232.000,A,4740.6700,N,12224.6788,W,4.51,215.02,211010,,,A*7A
$GPGGA,233233.000,4740.6690,N,12224.6799,W,1,10,0.8,-0.6,M,-17.3,M,,0000*4C
$GPGSA,A,3,10,02,25,29,30,31,12,16,21,05,,,1.4,0.8,1.2*30
$GPRMC,233233.000,A,4740.6690,N,12224.6799,W,4.53,211.52,211010,,,A*70
$GPGGA,233234.000,4740.6679,N,12224.6808,W,1,10,0.8,-0.5,M,-17.3,M,,0000*48
$GPGSA,A,3,10,02,25,29,30,31,12,16,21,05,,,1.4,0.8,1.2*30
$GPGSV,3,1,12,29,80,318,44,05,53,080,39,30,49,220,41,25,40,196,39*7C
EPOCH
1287703954
$GPGSV,3,3,12,31,09,275,38,16,09,324,37,26,03,116,25,18,03,199,29*73
$GPRMC,233234.000,A,4740.6679,N,12224.6808,W,4.44,208.46,211010,,,A*7C
$GPGGA,233235.000,4740.6668,N,12224.6817,W,1,10,0.8,-0.5,M,-17.3,M,,0000*47
$GPGSA,A,3,10,02,25,29,30,31,12,16,21,05,,,1.4,0.8,1.2*30
$GPRMC,233235.000,A,4740.6668,N,12224.6817,W,4.46,206.71,211010,,,A*7B
$GPGGA,233236.000,4740.6657,N,12224.6825,W,1,10,0.8,-0.5,M,-17.3,M,,0000*49
$GPGSA,A,3,10,02,25,29,30,31,12,16,21,05,,,1.4,0.8,1.2*30
$GPRMC,233236.000,A,4740.6657,N,12224.6825,W,4.45,204.00,211010,,,A*72
$GPGGA,233237.000,4740.6646,N,12224.6832,W,1,10,0.8,-0.5,M,-17.3,M,,0000*4E
$GPGSA,A,3,10,02,25,29,30,31,12,16,21,05,,,1.4,0.8,1.2*30
$GPRMC,233237.000,A,4740.6646,N,12224.6832,W,4.37,200.51,211010,,,A*70
$GPGGA,233238.000,4740.6635,N,12224.6838,W,1,10,0.8,-0.5,M,-17.3,M,,0000*4F
EPOCH
1287703958
$GPRMC,233238.000,A,4740.6635,N,12224.6838,W,4.44,199.82,211010,,,A*78
$GPGGA,233239.000,4740.6623,N,12224.6844,W,1,10,0.8,-0.5,M,-17.3,M,,0000*42
$GPGSA,A,3,10,02,25,29,30,31,12,16,21,05,,,1.4,0.8,1.2*30
$GPGSV,3,1,12,29,80,318,45,05,53,080,39,30,49,220,42,25,40,196,36*71
$GPGSV,3,2,12,21,36,250,37,10,18,042,26,02,16,067,41,12,13,171,36*76
$GPGSV,3,3,12,31,09,275,29,16,09,324,37,26,03,116,24,18,03,199,24*7F
$GPRMC,233239.000,A,4740.6623,N,12224.6844,W,4.34,198.18,211010,,,A*70
$GPGGA,233240.000,4740.6612,N,12224.6849,W,1,10,0.8,-0.5,M,-17.3,M,,0000*43
$GPGSA,A,3,10,02,25,29,30,31,12,16,21,05,,,1.4,0.8,1.2*30
$GPRMC,233240.000,A,4740.6612,N,12224.6849,W,4.34,196.31,211010,,,A*74
$GPGGA,233241.000,4740.6600,N,12224.6854,W,1,10,0.8,-0.5,M,-17.3,M,,0000*4D
$GPGSA,A,3,10,02,25,29,30,31,12,16,21,05,,,1.4,0.8,1.2*30
EPOCH
1287703961
$GPGGA,233242.000,4740.6589,N,12224.6859,W,1,10,0.8,-0.5,M,-17.3,M,,0000*41
$GPGSA,A,3,10,02,25,29,30,31,12,16,21,05,,,1.4,0.8,1.2*30
$GPRMC,233242.000,A,4740.6589,N,12224.6859,W,4.27,193.19,211010,,,A*7B
$GPGGA,233243.000,4740.6577,N,12224.6863,W,1,10,0.8,-0.6,M,-17.3,M,,0000*4B
$GPGSA,A,3,10,02,25,29,30,31,12,16,21,05,,,1.4,0.8,1.2*30
$GPRMC,233243.000,A,4740.6577,N,12224.6863,W,4.30,193.11,211010,,,A*7C
$GPGGA,233244.000,4740.6566,N,12224.6867,W,1,10,0.8,-0.6,M,-17.3,M,,0000*48
$GPGSA,A,3,10,02,25,29,30,31,12,16,21,05,,,1.4,0.8,1.2*30
$GPGSV,3,1,12,29,80,318,45,05,53,080,40,30,49,220,38,25,40,196,32*76
$GPGSV,3,2,12,21,36,250,40,10,18,042,33,02,16,067,40,12,13,171,42*70
$GPGSV,3,3,12,31,09,275,35,16,09,324,33,26,03,116,24,18,03,199,*70
$GPRMC,233244.000,A,4740.6566,N,12224.6867,W,4.26,192.04,211010,,,A*7D
EPOCH
1287703965
$GPGSA,A,3,10,02,25,29,30,31,12,16,21,05,,,1.4,0.8,1.2*30
$GPRMC,233245.000,A,4740.6554,N,12224.6870,W,4.29,191.72,211010,,,A*76
$GPGGA,233246.000,4740.6542,N,12224.6874,W,1,10,0.8,-0.6,M,-17.3,M,,0000*4E
$GPGSA,A,3,10,02,25,29,30,31,12,16,21,05,,,1.4,0.8,1.2*30
$GPRMC,233246.000,A,4740.6542,N,12224.6874,W,4.23,191.10,211010,,,A*78
$GPGGA,233247.000,4740.6531,N,12224.6877,W,1,10,0.8,-0.7,M,-17.3,M,,0000*49
$GPGSA,A,3,10,02,25,29,30,31,12,16,21,05,,,1.4,0.8,1.2*30
$GPRMC,233247.000,A,4740.6531,N,12224.6877,W,4.32,190.11,211010,,,A*7E
$GPGGA,233248.000,4740.6520,N,12224.6880,W,1,10,0.8,-0.7,M,-17.3,M,,0000*4E
$GPGSA,A,3,10,02,25,29,30,31,12,16,21,05,,,1.4,0.8,1.2*30
$GPRMC,233248.000,A,4740.6520,N,12224.6880,W,4.27,189.45,211010,,,A*74
$GPGGA,233249.000,4740.6508,N,12224.6883,W,1,10,0.8,-0.8,M,-17.3,M,,0000*49
EPOCH
1287703969
$GPGSV,3,1,12,29,80,318,45,05,53,080,36,30,49,220,39,25,40,196,39*7D
$GPGSV,3,2,12,21,36,250,40,10,18,042,28,02,16,067,41,12,13,171,42*7B
$GPGSV,3,3,12,31,09,275,41,16,09,324,27,26,03,116,,18,03,199,*70
$GPRMC,233249.000,A,4740.6508,N,12224.6883,W,4.26,189.40,211010,,,A*78
$GPGGA,233250.000,4740.6497,N,12224.6886,W,1,10,0.8,-0.8,M,-17.3,M,,0000*43
$GPGSA,A,3,10,02,25,29,30,31,12,16,21,05,,,1.4,0.8,1.2*30
$GPRMC,233250.000,A,4740.6497,N,12224.6886,W,4.24,189.23,211010,,,A*75
$GPGGA,233251.000,4740.6486,N,12224.6889,W,1,10,0.8,-0.9,M,-17.3,M,,0000*4C
$GPGSA,A,3,10,02,25,29,30,31,12,16,21,05,,,1.4,0.8,1.2*30
$GPRMC,233251.000,A,4740.6486,N,12224.6889,W,4.28,189.11,211010,,,A*76
$GPGGA,233252.000,4740.6474,N,12224.6892,W,1,10,0.8,-0.9,M,-17.3,M,,0000*48
$GPGSA,A,3,10,02,25,29,30,31,12,16,21,05,,,1.4,0.8,1.2*30
EPOCH
1287703972
$GPGGA,233253.000,4740.6463,N,12224.6895,W,1,10,0.8,-0.9,M,-17.3,M,,0000*48
$GPGSA,A,3,10,02,25,29,30,31,12,16,21,05,,,1.4,0.8,1.2*30
$GPRMC,233253.000,A,4740.6463,N,12224.6895,W,4.30,191.07,211010,,,A*75
$GPGGA,233254.000,4740.6451,N,12224.6898,W,1,10,0.8,-1.0,M,-17.3,M,,0000*4B
$GPGSA,A,3,10,02,25,29,30,31,12,16,21,05,,,1.4,0.8,1.2*30
$GPGSV,3,1,12,29,80,318,45,05,53,080,31,30,49,220,39,25,40,196,38*7B
$GPGSV,3,2,12,21,36,250,40,10,18,042,27,02,16,067,40,12,13,171,42*75
$GPGSV,3,3,12,31,09,275,40,16,09,324,26,26,03,116,,18,03,199,*70
$GPRMC,233254.000,A,4740.6451,N,12224.6898,W,4.28,187.61,211010,,,A*70
$GPGGA,233255.000,4740.6439,N,12224.6901,W,1,10,0.8,-1.0,M,-17.3,M,,0000*45
$GPGSA,A,3,10,02,25,29,30,31,12,16,21,05,,,1.4,0.8,1.2*30
$GPRMC,233255.000,A,4740.6439,N,12224.6901,W,4.34,192.14,211010,,,A*75
EPOCH
1287703976
$GPGSA,A,3,10,02,25,29,30,31,12,16,21,05,,,1.4,0.8,1.2*30
$GPRMC,233256.000,A,4740.6428,N,12224.6905,W,4.28,188.75,211010,,,A*73
$GPGGA,233257.000,4740.6417,N,12224.6908,W,1,10,0.8,-1.0,M,-17.3,M,,0000*42
$GPGSA,A,3,10,02,25,29,30,31,12,16,21,05,,,1.4,0.8,1.2*30
$GPRMC,233257.000,A,4740.6417,N,12224.6908,W,4.27,191.23,211010,,,A*77
$GPGGA,233258.000,4740.6405,N,12224.6911,W,1,10,0.8,-1.0,M,-17.3,M,,0000*46
$GPGSA,A,3,10,02,25,29,30,31,12,16,21,05,,,1.4,0.8,1.2*30
$GPRMC,233258.000,A,4740.6405,N,12224.6911,W,4.21,190.38,211010,,,A*7E
$GPGGA,233259.000,4740.6393,N,12224.6915,W,1,10,0.8,-1.0,M,-17.3,M,,0000*4B
$GPGSA,A,3,10,02,25,29,30,31,12,16,21,05,,,1.4,0.8,1.2*30
$GPGSV,3,1,12,29,80,318,44,05,53,080,35,30,49,220,38,25,40,196,34*73
$GPGSV,3,2,12,21,36,250,40,10,18,042,36,02,16,067,40,12,13,171,42*75
EPOCH
1287703979
$GPRMC,233259.000,A,4740.6393,N,12224.6915,W,4.20,192.45,211010,,,A*7A
$GPGGA,233300.000,4740.6382,N,12224.6917,W,1,10,0.8,-0.9,M,-17.3,M,,0000*4C
$GPGSA,A,3,10,02,25,29,30,31,12,16,21,05,,,1.4,0.8,1.2*30
$GPRMC,233300.000,A,4740.6382,N,12224.6917,W,3.96,187.00,211010,,,A*7A
$GPGGA,233301.000,4740.6371,N,12224.6920,W,1,10,0.8,-0.9,M,-17.3,M,,0000*45
$GPGSA,A,3,10,02,25,29,30,31,12,16,21,05,,,1.4,0.8,1.2*30
$GPRMC,233301.000,A,4740.6371,N,12224.6920,W,4.29,195.23,211010,,,A*72
$GPGGA,233302.000,4740.6359,N,12224.6925,W,1,10,0.8,-0.9,M,-17.3,M,,0000*49
$GPGSA,A,3,10,02,25,29,30,31,12,16,21,05,,,1.4,0.8,1.2*30
$GPRMC,233302.000,A,4740.6359,N,12224.6925,W,4.21,192.44,211010,,,A*70
$GPGGA,233303.000,4740.6348,N,12224.6929,W,1,10,0.8,-0.8,M,-17.3,M,,0000*45
$GPGSA,A,3,10,02,25,29,30,31,12,16,21,05,,,1.4,0.8,1.2*30
EPOCH
1287703983
$GPGGA,233304.000,4740.6336,N,12224.6934,W,1,10,0.8,-0.8,M,-17.3,M,,0000*47
$GPGSA,A,3,10,02,25,29,30,31,12,16,21,05,,,1.4,0.8,1.2*30
$GPGSV,3,1,12,29,80,318,44,05,53,080,40,30,49,220,39,25,40,196,35*71
$GPGSV,3,2,12,21,36,250,40,10,18,042,27,02,16,067,35,12,13,171,42*77
$GPGSV,3,3,12,31,09,275,34,16,09,324,32,26,03,116,17,18,03,199,*70
$GPRMC,233304.000,A,4740.6336,N,12224.6934,W,4.29,194.64,211010,,,A*73
$GPGGA,233305.000,4740.6325,N,12224.6939,W,1,10,0.8,-0.7,M,-17.3,M,,0000*46
$GPGSA,A,3,10,02,25,29,30,31,12,16,21,05,,,1.4,0.8,1.2*30
$GPRMC,233305.000,A,4740.6325,N,12224.6939,W,4.26,197.55,211010,,,A*73
$GPGGA,233306.000,4740.6314,N,12224.6945,W,1,10,0.8,-0.7,M,-17.3,M,,0000*4C
$GPGSA,A,3,10,02,25,29,30,31,12,16,21,05,,,1.4,0.8,1.2*30
$GPRMC,233306.000,A,4740.6314,N,12224.6945,W,4.32,200.14,211010,,,A*74
EPOCH
1287703987
$GPGSA,A,3,10,02,25,29,30,31,12,16,21,05,,,1.4,0.8,1.2*30
$GPRMC,233307.000,A,4740.6302,N,12224.6951,W,4.34,201.25,211010,,,A*72
$GPGGA,233308.000,4740.6291,N,12224.6958,W,1,10,0.8,-0.6,M,-17.3,M,,0000*43
$GPGSA,A,3,10,02,25,29,30,31,12,16,21,05,,,1.4,0.8,1.2*30
$GPRMC,233308.000,A,4740.6291,N,12224.6958,W,4.26,205.44,211010,,,A*7F
$GPGGA,233309.000,4740.6281,N,12224.6966,W,1,10,0.8,-0.8,M,-17.3,M,,0000*40
$GPGSA,A,3,10,02,25,29,30,31,12,16,21,05,,,1.4,0.8,1.2*30
$GPGSV,3,1,12,29,80,318,44,05,53,080,36,30,49,220,40,25,40,196,36*7D
$GPGSV,3,2,12,21,36,250,35,10,18,042,27,02,16,067,33,12,13,171,36*70
$GPGSV,3,3,12,31,09,275,34,16,09,324,38,26,03,116,,18,03,199,22*7C
$GPRMC,233309.000,A,4740.6281,N,12224.6966,W,4.20,205.15,211010,,,A*70
$GPGGA,233310.000,4740.6270,N,12224.6974,W,1,10,0.8,-0.8,M,-17.3,M,,0000*45
EPOCH
1287703990
$GPRMC,233310.000,A,4740.6270,N,12224.6974,W,4.13,207.98,211010,,,A*72
$GPGGA,233311.000,4740.6260,N,12224.6982,W,1,10,0.8,-0.7,M,-17.3,M,,0000*43
$GPGSA,A,3,10,02,25,29,30,31,12,16,21,05,,,1.4,0.8,1.2*30
$GPRMC,233311.000,A,4740.6260,N,12224.6982,W,4.29,215.95,211010,,,A*7C
$GPGGA,233312.000,4740.6251,N,12224.6991,W,1,10,0.8,-0.8,M,-17.3,M,,0000*4F
$GPGSA,A,3,10,02,25,29,30,31,12,16,21,05,,,1.4,0.8,1.2*30
$GPRMC,233312.000,A,4740.6251,N,12224.6991,W,3.96,212.02,211010,,,A*75
$GPGGA,233313.000,4740.6242,N,12224.7001,W,1,10,0.8,-0.6,M,-17.3,M,,0000*43
$GPGSA,A,3,10,02,25,29,30,31,12,16,21,05,,,1.4,0.8,1.2*30
$GPRMC,233313.000,A,4740.6242,N,12224.7001,W,4.03,220.38,211010,,,A*74
$GPGGA,233314.000,4740.6233,N,12224.7012,W,1,10,0.8,-0.6,M,-17.3,M,,0000*40
$GPGSA,A,3,10,02,25,29,30,31,12,16,21,05,,,1.4,0.8,1.2*30
EPOCH
1287703994
$GPGSV,3,2,12,21,36,250,36,10,18,042,35,02,16,067,38,12,13,171,41*7B
$GPGSV,3,3,12,31,09,275,34,16,09,324,33,26,03,116,13,18,03,199,*75
$GPRMC,233314.000,A,4740.6233,N,12224.7012,W,4.13,219.26,211010,,,A*73
$GPGGA,233315.000,4740.6224,N,12224.7023,W,1,10,0.8,-0.5,M,-17.3,M,,0000*46
$GPGSA,A,3,10,02,25,29,30,31,12,16,21,05,,,1.4,0.8,1.2*30
$GPRMC,233315.000,A,4740.6224,N,12224.7023,W,4.13,221.69,211010,,,A*76
$GPGGA,233316.000,4740.6216,N,12224.7035,W,1,10,0.8,-0.5,M,-17.3,M,,0000*43
$GPGSA,A,3,10,02,25,29,30,31,12,16,21,05,,,1.4,0.8,1.2*30
$GPRMC,233316.000,A,4740.6216,N,12224.7035,W,4.13,226.41,211010,,,A*7E
$GPGGA,233317.000,4740.6208,N,12224.7047,W,1,10,0.8,-0.5,M,-17.3,M,,0000*48
$GPGSA,A,3,10,02,25,29,30,31,12,16,21,05,,,1.4,0.8,1.2*30
$GPRMC,233317.000,A,4740.6208,N,12224.7047,W,3.89,227.05,211010,,,A*70
EPOCH
1287703998
$GPGSA,A,3,10,02,25,29,30,31,12,16,21,05,,,1.4,0.8,1.2*30
$GPRMC,233318.000,A,4740.6201,N,12224.7059,W,4.10,229.10,211010,,,A*74
$GPGGA,233319.000,4740.6194,N,12224.7072,W,1,10,0.8,-0.5,M,-17.3,M,,0000*46
$GPGSA,A,3,10,02,25,29,30,31,12,16,21,05,,,1.4,0.8,1.2*30
$GPGSV,3,1,12,29,80,318,44,05,53,080,40,30,49,220,35,25,40,196,34*7C
$GPGSV,3,2,12,21,36,250,34,10,18,042,34,02,16,067,29,12,13,171,43*7A
$GPGSV,3,3,12,31,09,275,40,16,09,324,37,26,03,116,,18,03,199,26*74
$GPRMC,233319.000,A,4740.6194,N,12224.7072,W,3.92,231.07,211010,,,A*71
$GPGGA,233320.000,4740.6187,N,12224.7086,W,1,10,0.8,-0.5,M,-17.3,M,,0000*45
$GPGSA,A,3,10,02,25,29,30,31,12,16,21,05,,,1.4,0.8,1.2*30
$GPRMC,233320.000,A,4740.6187,N,12224.7086,W,4.12,230.52,211010,,,A*7C
$GPGGA,233321.000,4740.6180,N,12224.7099,W,1,10,0.8,-0.5,M,-17.3,M,,0000*4D
EPOCH
1287704001
$GPRMC,233321.000,A,4740.6180,N,12224.7099,W,4.09,233.72,211010,,,A*7F
$GPGGA,233322.000,4740.6173,N,12224.7112,W,1,10,0.8,-0.4,M,-17.3,M,,0000*41
$GPGSA,A,3,10,02,25,29,30,31,12,16,21,05,,,1.4,0.8,1.2*30
$GPRMC,233322.000,A,4740.6173,N,12224.7112,W,4.04,233.72,211010,,,A*7F
$GPGGA,233323.000,4740.6166,N,12224.7126,W,1,10,0.8,-0.4,M,-17.3,M,,0000*43
$GPGSA,A,3,10,02,25,29,30,31,12,16,21,05,,,1.4,0.8,1.2*30
$GPRMC,233323.000,A,4740.6166,N,12224.7126,W,4.03,235.28,211010,,,A*73
$GPGGA,233324.000,4740.6160,N,12224.7141,W,1,10,0.8,-0.4,M,-17.3,M,,0000*43
$GPGSA,A,3,10,02,25,29,30,31,12,16,21,05,,,1.4,0.8,1.2*30
$GPGSV,3,1,12,29,80,318,44,05,53,080,41,30,49,220,38,25,40,196,34*70
$GPGSV,3,2,12,21,36,250,33,10,18,042,34,02,16,067,30,12,13,171,38*79
$GPGSV,3,3,12,31,09,275,34,16,09,324,32,26,03,116,,18,03,199,*76
EPOCH
1287704005
$GPGGA,233325.000,4740.6153,N,12224.7156,W,1,10,0.8,-0.3,M,-17.3,M,,0000*43
$GPGSA,A,3,10,02,25,29,30,31,12,16,21,05,,,1.4,0.8,1.2*30
$GPRMC,233325.000,A,4740.6153,N,12224.7156,W,4.52,238.60,211010,,,A*71
$GPGGA,233326.000,4740.6147,N,12224.7172,W,1,10,0.8,-0.4,M,-17.3,M,,0000*44
$GPGSA,A,3,10,02,25,29,30,31,12,16,21,05,,,1.4,0.8,1.2*30
$GPRMC,233326.000,A,4740.6147,N,12224.7172,W,4.34,237.84,211010,,,A*74
$GPGGA,233327.000,4740.6141,N,12224.7187,W,1,10,0.8,-0.5,M,-17.3,M,,0000*48
$GPGSA,A,3,10,02,25,29,30,31,12,16,21,05,,,1.4,0.8,1.2*30
$GPRMC,233327.000,A,4740.6141,N,12224.7187,W,4.30,241.43,211010,,,A*77
$GPGGA,233328.000,4740.6136,N,12224.7203,W,1,10,0.8,-0.5,M,-17.3,M,,0000*48
$GPGSA,A,3,10,02,25,29,30,31,12,16,21,05,,,1.4,0.8,1.2*30
$GPRMC,233328.000,A,4740.6136,N,12224.7203,W,4.40,245.79,211010,,,A*7D
EPOCH
1287704009
$GPGSA,A,3,10,02,25,29,30,31,12,16,21,05,,,1.4,0.8,1.2*30
$GPGSV,3,1,12,29,80,318,44,05,53,080,40,30,49,220,40,25,40,196,31*7B
$GPGSV,3,2,12,21,36,250,33,10,18,042,34,02,16,067,35,12,13,171,31*75
$GPGSV,3,3,12,31,09,275,33,16,09,324,38,26,03,116,,18,03,199,29*70
$GPRMC,233329.000,A,4740.6131,N,12224.7220,W,4.64,243.86,211010,,,A*7A
$GPGGA,233330.000,4740.6126,N,12224.7238,W,1,10,0.8,-0.5,M,-17.3,M,,0000*48
$GPGSA,A,3,10,02,25,29,30,31,12,16,21,05,,,1.4,0.8,1.2*30
$GPRMC,233330.000,A,4740.6126,N,12224.7238,W,4.64,245.81,211010,,,A*7C
$GPGGA,233331.000,4740.6121,N,12224.7255,W,1,09,0.9,-0.5,M,-17.3,M,,0000*4C
$GPGSA,A,3,10,02,29,30,31,12,16,21,05,,,,1.5,0.9,1.2*37
$GPRMC,233331.000,A,4740.6121,N,12224.7255,W,4.61,248.60,211010,,,A*76
$GPGGA,233332.000,4740.6116,N,12224.7273,W,1,10,0.8,-0.4,M,-17.3,M,,0000*47
EPOCH
1287704012
$GPRMC,233332.000,A,4740.6116,N,12224.7273,W,4.62,248.91,211010,,,A*78
$GPGGA,233333.000,4740.6111,N,12224.7291,W,1,10,0.8,-0.4,M,-17.3,M,,0000*4D
$GPGSA,A,3,10,02,25,29,30,31,12,16,21,05,,,1.4,0.8,1.2*30
$GPRMC,233333.000,A,4740.6111,N,12224.7291,W,4.61,249.88,211010,,,A*78
$GPGGA,233334.000,4740.6107,N,12224.7309,W,1,10,0.8,-0.3,M,-17.3,M,,0000*4A
$GPGSA,A,3,10,02,25,29,30,31,12,16,21,05,,,1.4,0.8,1.2*30
$GPGSV,3,1,12,29,80,318,44,05,53,080,29,30,49,220,41,25,40,196,35*71
$GPGSV,3,2,12,21,36,250,36,10,18,042,25,02,16,067,36,12,13,171,40*75
$GPGSV,3,3,12,31,09,275,34,16,09,324,32,26,03,116,21,18,03,199,32*74
$GPRMC,233334.000,A,4740.6107,N,12224.7309,W,4.65,250.25,211010,,,A*73
$GPGGA,233335.000,4740.6103,N,12224.7327,W,1,09,0.9,-0.2,M,-17.3,M,,0000*4B
$GPGSA,A,3,02,25,29,30,31,12,16,21,05,,,,1.5,0.9,1.2*31
EPOCH
1287704015
$GPGGA,233336.000,4740.6100,N,12224.7346,W,1,09,0.9,-0.3,M,-17.3,M,,0000*4D
$GPGSA,A,3,02,25,29,30,31,12,16,21,05,,,,1.5,0.9,1.2*31
$GPRMC,233336.000,A,4740.6100,N,12224.7346,W,4.79,251.93,211010,,,A*7C
$GPGGA,233337.000,4740.6095,N,12224.7364,W,1,10,0.8,-0.2,M,-17.3,M,,0000*49
$GPGSA,A,3,02,25,29,30,31,12,16,21,05,10,,,1.4,0.8,1.2*30
$GPRMC,233337.000,A,4740.6095,N,12224.7364,W,4.83,253.03,211010,,,A*7E
$GPGGA,233338.000,4740.6092,N,12224.7383,W,1,10,0.8,-0.3,M,-17.3,M,,0000*49
$GPGSA,A,3,02,25,29,30,31,12,16,21,05,10,,,1.4,0.8,1.2*30
$GPRMC,233338.000,A,4740.6092,N,12224.7383,W,4.78,255.29,211010,,,A*75
$GPGGA,233339.000,4740.6088,N,12224.7402,W,1,10,0.8,-0.3,M,-17.3,M,,0000*4D
$GPGSA,A,3,02,25,29,30,31,12,16,21,05,10,,,1.4,0.8,1.2*30
$GPGSV,3,1,12,29,80,318,44,05,53,080,33,30,49,220,36,25,40,196,41*79
EPOCH
1287704019
$GPGSV,3,3,12,31,09,275,34,16,09,324,35,26,03,116,31,18,03,199,31*71
$GPRMC,233339.000,A,4740.6088,N,12224.7402,W,4.80,254.27,211010,,,A*79
$GPGGA,233340.000,4740.6085,N,12224.7421,W,1,10,0.8,-0.4,M,-17.3,M,,0000*48
$GPGSA,A,3,02,25,29,30,31,12,16,21,05,10,,,1.4,0.8,1.2*30
$GPRMC,233340.000,A,4740.6085,N,12224.7421,W,4.78,256.41,211010,,,A*7E
$GPGGA,233341.000,4740.6082,N,12224.7441,W,1,10,0.8,-0.5,M,-17.3,M,,0000*49
$GPGSA,A,3,02,25,29,30,31,12,16,21,05,10,,,1.4,0.8,1.2*30
$GPRMC,233341.000,A,4740.6082,N,12224.7441,W,4.87,256.63,211010,,,A*7E
$GPGGA,233342.000,4740.6079,N,12224.7461,W,1,10,0.8,-0.5,M,-17.3,M,,0000*4C
$GPGSA,A,3,02,25,29,30,31,12,16,21,05,10,,,1.4,0.8,1.2*30
$GPRMC,233342.000,A,4740.6079,N,12224.7461,W,4.99,256.99,211010,,,A*71
$GPGGA,233343.000,4740.6075,N,12224.7481,W,1,10,0.8,-0.6,M,-17.3,M,,0000*4C
EPOCH
1287704023
$GPRMC,233343.000,A,4740.6075,N,12224.7481,W,5.07,256.42,211010,,,A*72
$GPGGA,233344.000,4740.6072,N,12224.7501,W,1,10,0.8,-0.7,M,-17.3,M,,0000*44
$GPGSA,A,3,02,25,29,30,31,12,16,21,05,10,,,1.4,0.8,1.2*30
$GPGSV,3,1,12,29,80,318,43,05,53,080,38,30,49,220,37,25,40,196,42*77
$GPGSV,3,2,12,21,36,250,40,10,18,042,33,02,16,067,35,12,13,171,25*73
$GPGSV,3,3,12,31,09,275,40,16,09,324,36,26,03,116,40,18,03,199,36*70
$GPRMC,233344.000,A,4740.6072,N,12224.7501,W,5.00,256.47,211010,,,A*79
$GPGGA,233345.000,4740.6069,N,12224.7521,W,1,10,0.8,-0.9,M,-17.3,M,,0000*43
$GPGSA,A,3,02,25,29,30,31,12,16,21,05,10,,,1.4,0.8,1.2*30
$GPRMC,233345.000,A,4740.6069,N,12224.7521,W,5.05,257.69,211010,,,A*78
$GPGGA,233346.000,4740.6066,N,12224.7541,W,1,10,0.8,-1.0,M,-17.3,M,,0000*41
$GPGSA,A,3,02,25,29,30,31,12,16,21,05,10,,,1.4,0.8,1.2*30
EPOCH
1287704026
$GPGGA,233347.000,4740.6063,N,12224.7562,W,1,10,0.8,-1.1,M,-17.3,M,,0000*45
$GPGSA,A,3,02,25,29,30,31,12,16,21,05,10,,,1.4,0.8,1.2*30
$GPRMC,233347.000,A,4740.6063,N,12224.7562,W,4.96,259.12,211010,,,A*7E
$GPGGA,233348.000,4740.6061,N,12224.7582,W,1,10,0.8,-1.2,M,-17.3,M,,0000*45
$GPGSA,A,3,02,25,29,30,31,12,16,21,05,10,,,1.4,0.8,1.2*30
$GPRMC,233348.000,A,4740.6061,N,12224.7582,W,5.02,260.00,211010,,,A*78
$GPGGA,233349.000,4740.6058,N,12224.7602,W,1,10,0.8,-1.3,M,-17.3,M,,0000*44
$GPGSA,A,3,02,25,29,30,31,12,16,21,05,10,,,1.4,0.8,1.2*30
$GPGSV,3,1,12,29,81,320,43,05,53,079,38,30,48,219,36,25,39,196,42*7F
$GPGSV,3,2,12,21,36,250,41,10,17,042,33,02,16,067,36,12,13,171,26*7D
$GPGSV,3,3,12,16,10,324,35,31,09,275,41,26,04,116,39,18,03,199,33*76
$GPRMC,233349.000,A,4740.6058,N,12224.7602,W,5.05,258.03,211010,,,A*77
EPOCH
1287704030
$GPGSA,A,3,02,25,29,30,31,12,16,21,05,10,,,1.4,0.8,1.2*30
$GPRMC,233350.000,A,4740.6055,N,12224.7623,W,5.06,257.69,211010,,,A*71
$GPGGA,233351.000,4740.6052,N,12224.7643,W,1,10,0.8,-1.5,M,-17.3,M,,0000*44
$GPGSA,A,3,02,25,29,30,31,12,16,21,05,10,,,1.4,0.8,1.2*30
$GPRMC,233351.000,A,4740.6052,N,12224.7643,W,5.00,256.13,211010,,,A*7B
$GPGGA,233352.000,4740.6048,N,12224.7663,W,1,10,0.8,-1.4,M,-17.3,M,,0000*4F
$GPGSA,A,3,02,25,29,30,31,12,16,21,05,10,,,1.4,0.8,1.2*30
$GPRMC,233352.000,A,4740.6048,N,12224.7663,W,4.95,254.88,211010,,,A*7C
$GPGGA,233353.000,4740.6044,N,12224.7683,W,1,10,0.8,-1.4,M,-17.3,M,,0000*4C
$GPGSA,A,3,02,25,29,30,31,12,16,21,05,10,,,1.4,0.8,1.2*30
$GPRMC,233353.000,A,4740.6044,N,12224.7683,W,4.99,254.07,211010,,,A*74
$GPGGA,233354.000,4740.6041,N,12224.7703,W,1,10,0.8,-1.3,M,-17.3,M,,0000*40
EPOCH
1287704034
$GPGSV,3,1,12,29,81,320,44,05,53,079,28,30,48,219,37,25,39,196,39*74
$GPGSV,3,2,12,21,36,250,41,10,17,042,32,02,16,067,36,12,13,171,36*7D
$GPGSV,3,3,12,16,10,324,27,31,09,275,33,26,04,116,40,18,03,199,36*7B
$GPRMC,233354.000,A,4740.6041,N,12224.7703,W,5.00,254.44,211010,,,A*79
$GPGGA,233355.000,4740.6037,N,12224.7723,W,1,10,0.8,-1.2,M,-17.3,M,,0000*43
$GPGSA,A,3,02,25,29,30,31,12,16,21,05,10,,,1.4,0.8,1.2*30
$GPRMC,233355.000,A,4740.6037,N,12224.7723,W,5.01,252.04,211010,,,A*78
$GPGGA,233356.000,4740.6032,N,12224.7743,W,1,10,0.8,-1.1,M,-17.3,M,,0000*40
$GPGSA,A,3,02,25,29,30,31,12,16,21,05,10,,,1.4,0.8,1.2*30
$GPRMC,233356.000,A,4740.6032,N,12224.7743,W,5.10,251.98,211010,,,A*7E
$GPGGA,233357.000,4740.6028,N,12224.7763,W,1,10,0.8,-1.2,M,-17.3,M,,0000*4B
$GPGSA,A,3,02,25,29,30,31,12,16,21,05,10,,,1.4,0.8,1.2*30
EPOCH
1287704037
$GPGGA,233358.000,4740.6024,N,12224.7781,W,1,10,0.8,-1.2,M,-17.3,M,,0000*44
$GPGSA,A,3,02,25,29,30,31,12,16,21,05,10,,,1.4,0.8,1.2*30
$GPRMC,233358.000,A,4740.6024,N,12224.7781,W,4.82,247.07,211010,,,A*72
$GPGGA,233359.000,4740.6019,N,12224.7800,W,1,10,0.8,-1.4,M,-17.3,M,,0000*4B
$GPGSA,A,3,02,25,29,30,31,12,16,21,05,10,,,1.4,0.8,1.2*30
$GPGSV,3,1,12,29,81,320,44,05,53,079,38,30,48,219,42,25,39,196,31*7F
$GPGSV,3,2,12,21,36,250,32,10,17,042,34,02,16,067,36,12,13,171,33*7A
$GPGSV,3,3,12,16,10,324,33,31,09,275,32,26,04,116,40,18,03,199,37*7E
$GPRMC,233359.000,A,4740.6019,N,12224.7800,W,4.81,243.89,211010,,,A*7A
$GPGGA,233400.000,4740.6013,N,12224.7817,W,1,10,0.8,-1.4,M,-17.3,M,,0000*4C
$GPGSA,A,3,02,25,29,30,31,12,16,21,05,10,,,1.4,0.8,1.2*30
$GPRMC,233400.000,A,4740.6013,N,12224.7817,W,4.72,243.90,211010,,,A*79
EPOCH
1287704041
$GPGSA,A,3,02,25,29,30,31,12,16,21,05,10,,,1.4,0.8,1.2*30
$GPRMC,233401.000,A,4740.6008,N,12224.7835,W,4.60,245.65,211010,,,A*7D
$GPGGA,233402.000,4740.6003,N,12224.7853,W,1,10,0.8,-1.5,M,-17.3,M,,0000*4E
$GPGSA,A,3,02,25,29,30,31,12,16,21,05,10,,,1.4,0.8,1.2*30
$GPRMC,233402.000,A,4740.6003,N,12224.7853,W,4.74,250.62,211010,,,A*73
$GPGGA,233403.000,4740.5999,N,12224.7871,W,1,10,0.8,-1.4,M,-17.3,M,,0000*47
$GPGSA,A,3,02,25,29,30,31,12,16,21,05,10,,,1.4,0.8,1.2*30
$GPRMC,233403.000,A,4740.5999,N,12224.7871,W,4.55,256.20,211010,,,A*78
$GPGGA,233404.000,4740.5996,N,12224.7889,W,1,10,0.8,-1.5,M,-17.3,M,,0000*49
$GPGSA,A,3,02,25,29,30,31,12,16,21,05,10,,,1.4,0.8,1.2*30
$GPGSV,3,1,12,29,81,320,43,05,53,079,38,30,48,219,35,25,39,196,42*7C
$GPGSV,3,2,12,21,37,251,41,10,17,042,34,02,15,067,36,12,12,171,27*79
EPOCH
1287704044
$GPRMC,233404.000,A,4740.5996,N,12224.7889,W,4.64,258.65,211010,,,A*7A
$GPGGA,233405.000,4740.5994,N,12224.7908,W,1,10,0.8,-1.5,M,-17.3,M,,0000*42
$GPGSA,A,3,02,25,29,30,31,12,16,21,05,10,,,1.4,0.8,1.2*30
$GPRMC,233405.000,A,4740.5994,N,12224.7908,W,4.66,259.46,211010,,,A*73
$GPGGA,233406.000,4740.5991,N,12224.7927,W,1,10,0.8,-1.6,M,-17.3,M,,0000*4A
$GPGSA,A,3,02,25,29,30,31,12,16,21,05,10,,,1.4,0.8,1.2*30
$GPRMC,233406.000,A,4740.5991,N,12224.7927,W,4.83,258.91,211010,,,A*78
$GPGGA,233407.000,4740.5988,N,12224.7946,W,1,10,0.8,-1.6,M,-17.3,M,,0000*44
$GPGSA,A,3,02,25,29,30,31,12,16,21,05,10,,,1.4,0.8,1.2*30
$GPRMC,233407.000,A,4740.5988,N,12224.7946,W,4.78,257.62,211010,,,A*71
$GPGGA,233408.000,4740.5985,N,12224.7966,W,1,10,0.8,-1.7,M,-17.3,M,,0000*45
$GPGSA,A,3,02,25,29,30,31,12,16,21,05,10,,,1.4,0.8,1.2*30
EPOCH
1287704048
$GPGGA,233409.000,4740.5982,N,12224.7985,W,1,10,0.8,-1.6,M,-17.3,M,,0000*4F
$GPGSA,A,3,02,25,29,30,31,12,16,21,05,10,,,1.4,0.8,1.2*30
$GPGSV,3,1,12,29,81,320,43,05,53,079,38,30,48,219,36,25,39,196,42*7F
$GPGSV,3,2,12,21,37,251,41,10,17,042,32,02,15,067,37,12,12,171,27*7E
$GPGSV,3,3,12,16,10,324,33,31,09,275,41,26,04,116,39,18,03,199,36*75
$GPRMC,233409.000,A,4740.5982,N,12224.7985,W,4.75,255.99,211010,,,A*71
$GPGGA,233410.000,4740.5979,N,12224.8004,W,1,09,1.1,-1.7,M,-17.3,M,,0000*4D
$GPGSA,A,3,02,25,29,30,31,16,21,05,10,,,,1.9,1.1,1.5*31
$GPRMC,233410.000,A,4740.5979,N,12224.8004,W,4.64,256.26,211010,,,A*75
$GPGGA,233411.000,4740.5976,N,12224.8022,W,1,10,0.8,-1.7,M,-17.3,M,,0000*47
$GPGSA,A,3,02,25,29,30,31,12,16,21,05,10,,,1.4,0.8,1.2*30
$GPRMC,233411.000,A,4740.5976,N,12224.8022,W,4.69,257.66,211010,,,A*77
EPOCH
1287704052
$GPGSA,A,3,02,25,29,30,31,12,16,21,05,10,,,1.4,0.8,1.2*30
$GPRMC,233412.000,A,4740.5973,N,12224.8041,W,4.75,256.64,211010,,,A*7A
$GPGGA,233413.000,4740.5970,N,12224.8060,W,1,10,0.8,-1.8,M,-17.3,M,,0000*4A
$GPGSA,A,3,02,25,29,30,31,12,16,21,05,10,,,1.4,0.8,1.2*30
$GPRMC,233413.000,A,4740.5970,N,12224.8060,W,4.82,257.13,211010,,,A*72
$GPGGA,233414.000,4740.5966,N,12224.8079,W,1,10,0.8,-1.8,M,-17.3,M,,0000*42
$GPGSA,A,3,02,25,29,30,31,12,16,21,05,10,,,1.4,0.8,1.2*30
$GPGSV,3,1,12,29,81,320,43,05,53,079,38,30,48,219,36,25,39,196,43*7E
$GPGSV,3,2,12,21,37,251,41,10,17,042,32,02,15,067,37,12,12,171,29*70
$GPGSV,3,3,12,16,10,324,33,31,09,275,41,26,04,116,39,18,03,199,36*75
$GPRMC,233414.000,A,4740.5966,N,12224.8079,W,4.81,256.45,211010,,,A*7B
$GPGGA,233415.000,4740.5963,N,12224.8098,W,1,10,0.8,-1.9,M,-17.3,M,,0000*48
EPOCH
1287704055
$GPRMC,233415.000,A,4740.5963,N,12224.8098,W,4.71,256.88,211010,,,A*7E
$GPGGA,233416.000,4740.5960,N,12224.8117,W,1,10,0.8,-1.9,M,-17.3,M,,0000*4E
$GPGSA,A,3,02,25,29,30,31,12,16,21,05,10,,,1.4,0.8,1.2*30
$GPRMC,233416.000,A,4740.5960,N,12224.8117,W,4.67,256.42,211010,,,A*79
$GPGGA,233417.000,4740.5957,N,12224.8136,W,1,10,0.8,-2.0,M,-17.3,M,,0000*42
$GPGSA,A,3,02,25,29,30,31,12,16,21,05,10,,,1.4,0.8,1.2*30
$GPRMC,233417.000,A,4740.5957,N,12224.8136,W,4.68,257.97,211010,,,A*79
$GPGGA,233418.000,4740.5954,N,12224.8155,W,1,10,0.8,-1.9,M,-17.3,M,,0000*41
$GPGSA,A,3,02,25,29,30,31,12,16,21,05,10,,,1.4,0.8,1.2*30
$GPRMC,233418.000,A,4740.5954,N,12224.8155,W,4.59,257.24,211010,,,A*7A
$GPGGA,233419.000,4740.5952,N,12224.8173,W,1,10,0.8,-2.0,M,-17.3,M,,0000*48
$GPGSA,A,3,02,25,29,30,31,12,16,21,05,10,,,1.4,0.8,1.2*30
EPOCH
1287704059
$GPGSV,3,2,12,21,37,251,41,10,17,042,32,02,15,067,38,12,12,171,28*7E
$GPGSV,3,3,12,16,10,324,33,31,09,275,40,26,04,116,38,18,03,199,36*75
$GPRMC,233419.000,A,4740.5952,N,12224.8173,W,4.68,258.13,211010,,,A*70
$GPGGA,233420.000,4740.5949,N,12224.8192,W,1,10,0.8,-2.0,M,-17.3,M,,0000*47
$GPGSA,A,3,02,25,29,30,31,12,16,21,05,10,,,1.4,0.8,1.2*30
$GPRMC,233420.000,A,4740.5949,N,12224.8192,W,4.72,258.16,211010,,,A*71
$GPGGA,233421.000,4740.5946,N,12224.8211,W,1,10,0.8,-2.0,M,-17.3,M,,0000*41
$GPGSA,A,3,02,25,29,30,31,12,16,21,05,10,,,1.4,0.8,1.2*30
$GPRMC,233421.000,A,4740.5946,N,12224.8211,W,4.61,259.13,211010,,,A*71
$GPGGA,233422.000,4740.5944,N,12224.8229,W,1,10,0.8,-2.1,M,-17.3,M,,0000*4A
$GPGSA,A,3,02,25,29,30,31,12,16,21,05,10,,,1.4,0.8,1.2*30
$GPRMC,233422.000,A,4740.5944,N,12224.8229,W,4.59,257.83,211010,,,A*77
EPOCH
1287704063
$GPGSA,A,3,02,25,29,30,31,12,16,21,05,10,,,1.4,0.8,1.2*30
$GPRMC,233423.000,A,4740.5941,N,12224.8248,W,4.55,256.85,211010,,,A*7F
$GPGGA,233424.000,4740.5938,N,12224.8266,W,1,10,0.8,-2.1,M,-17.3,M,,0000*4C
$GPGSA,A,3,02,25,29,30,31,12,16,21,05,10,,,1.4,0.8,1.2*30
$GPGSV,3,1,12,29,81,320,44,05,53,079,38,30,48,219,37,25,39,196,43*78
$GPGSV,3,2,12,21,37,251,41,10,17,042,32,02,15,067,38,12,12,171,29*7F
$GPGSV,3,3,12,16,10,324,34,31,09,275,40,26,04,116,36,18,03,199,35*7F
$GPRMC,233424.000,A,4740.5938,N,12224.8266,W,4.52,256.86,211010,,,A*7E
$GPGGA,233425.000,4740.5935,N,12224.8284,W,1,10,0.8,-2.2,M,-17.3,M,,0000*4F
$GPGSA,A,3,02,25,29,30,31,12,16,21,05,10,,,1.4,0.8,1.2*30
$GPRMC,233425.000,A,4740.5935,N,12224.8284,W,4.59,255.21,211010,,,A*7B
$GPGGA,233426.000,4740.5932,N,12224.8303,W,1,10,0.8,-2.1,M,-17.3,M,,0000*46
EPOCH
1287704066
$GPRMC,233426.000,A,4740.5932,N,12224.8303,W,4.57,257.22,211010,,,A*7E
$GPGGA,233427.000,4740.5929,N,12224.8321,W,1,09,1.1,-2.2,M,-17.3,M,,0000*4E
$GPGSA,A,3,02,25,29,30,31,16,21,05,10,,,,1.9,1.1,1.5*31
$GPRMC,233427.000,A,4740.5929,N,12224.8321,W,4.59,257.72,211010,,,A*7E
$GPGGA,233428.000,4740.5927,N,12224.8340,W,1,10,0.8,-2.2,M,-17.3,M,,0000*48
$GPGSA,A,3,02,25,29,30,31,12,16,21,05,10,,,1.4,0.8,1.2*30
$GPRMC,233428.000,A,4740.5927,N,12224.8340,W,4.68,257.63,211010,,,A*7A
$GPGGA,233429.000,4740.5924,N,12224.8359,W,1,10,0.8,-2.2,M,-17.3,M,,0000*42
$GPGSA,A,3,02,25,29,30,31,12,16,21,05,10,,,1.4,0.8,1.2*30
$GPGSV,3,1,12,29,81,320,43,05,53,079,39,30,48,219,37,25,39,196,43*7E
$GPGSV,3,2,12,21,37,251,41,10,17,042,32,02,15,067,37,12,12,171,26*7F
$GPGSV,3,3,12,16,10,324,34,31,09,275,40,26,04,116,38,18,03,199,35*71
EPOCH
1287704070
$GPGGA,233430.000,4740.5921,N,12224.8378,W,1,10,0.8,-2.2,M,-17.3,M,,0000*4C
$GPGSA,A,3,02,25,29,30,31,12,16,21,05,10,,,1.4,0.8,1.2*30
$GPRMC,233430.000,A,4740.5921,N,12224.8378,W,4.72,257.16,211010,,,A*77
$GPGGA,233431.000,4740.5918,N,12224.8397,W,1,10,0.8,-2.2,M,-17.3,M,,0000*46
$GPGSA,A,3,02,25,29,30,31,12,16,21,05,10,,,1.4,0.8,1.2*30
$GPRMC,233431.000,A,4740.5918,N,12224.8397,W,4.75,258.28,211010,,,A*78
$GPGGA,233432.000,4740.5915,N,12224.8416,W,1,10,0.8,-2.2,M,-17.3,M,,0000*46
$GPGSA,A,3,02,25,29,30,31,12,16,21,05,10,,,1.4,0.8,1.2*30
$GPRMC,233432.000,A,4740.5915,N,12224.8416,W,4.68,256.12,211010,,,A*73
$GPGGA,233433.000,4740.5912,N,12224.8435,W,1,10,0.8,-2.3,M,-17.3,M,,0000*40
$GPGSA,A,3,02,25,29,30,31,12,16,21,05,10,,,1.4,0.8,1.2*30
$GPRMC,233433.000,A,4740.5912,N,12224.8435,W,4.86,256.84,211010,,,A*7B
EPOCH
1287704074
$GPGSA,A,3,02,25,29,30,31,12,16,21,05,10,,,1.4,0.8,1.2*30
$GPGSV,3,1,12,29,81,320,44,05,53,078,38,30,48,219,37,25,39,196,43*79
$GPGSV,3,2,12,21,37,251,41,10,17,042,32,02,15,067,37,12,12,171,26*7F
$GPGSV,3,3,12,16,10,324,34,31,09,274,40,26,04,116,39,18,03,199,36*72
$GPRMC,233434.000,A,4740.5909,N,12224.8455,W,4.75,256.41,211010,,,A*75
$GPGGA,233435.000,4740.5906,N,12224.8474,W,1,10,0.8,-2.2,M,-17.3,M,,0000*47
$GPGSA,A,3,02,25,29,30,31,12,16,21,05,10,,,1.4,0.8,1.2*30
$GPRMC,233435.000,A,4740.5906,N,12224.8474,W,4.77,256.54,211010,,,A*7E
$GPGGA,233436.000,4740.5903,N,12224.8493,W,1,10,0.8,-2.2,M,-17.3,M,,0000*48
$GPGSA,A,3,02,25,29,30,31,12,16,21,05,10,,,1.4,0.8,1.2*30
$GPRMC,233436.000,A,4740.5903,N,12224.8493,W,4.76,256.79,211010,,,A*7F
$GPGGA,233437.000,4740.5900,N,12224.8512,W,1,10,0.8,-2.2,M,-17.3,M,,0000*42
EPOCH
1287704077
$GPRMC,233437.000,A,4740.5900,N,12224.8512,W,4.66,257.06,211010,,,A*7D
$GPGGA,233438.000,4740.5897,N,12224.8531,W,1,10,0.8,-2.2,M,-17.3,M,,0000*43
$GPGSA,A,3,02,25,29,30,31,12,16,21,05,10,,,1.4,0.8,1.2*30
$GPRMC,233438.000,A,4740.5897,N,12224.8531,W,4.80,256.78,211010,,,A*7C
$GPGGA,233439.000,4740.5894,N,12224.8550,W,1,10,0.8,-2.2,M,-17.3,M,,0000*46
$GPGSA,A,3,02,25,29,30,31,12,16,21,05,10,,,1.4,0.8,1.2*30
$GPGSV,3,1,12,29,81,320,44,05,53,078,39,30,48,219,37,25,39,196,43*78
$GPGSV,3,2,12,21,37,251,41,10,17,042,30,02,15,067,38,12,12,171,27*73
$GPGSV,3,3,12,16,10,324,34,31,09,274,40,26,04,116,38,18,03,199,34*71
$GPRMC,233439.000,A,4740.5894,N,12224.8550,W,4.79,255.00,211010,,,A*73
$GPGGA,233440.000,4740.5891,N,12224.8569,W,1,10,0.8,-2.2,M,-17.3,M,,0000*47
$GPGSA,A,3,02,25,29,30,31,12,16,21,05,10,,,1.4,0.8,1.2*30
EPOCH
1287704080
$GPGGA,233441.000,4740.5887,N,12224.8589,W,1,10,0.8,-2.2,M,-17.3,M,,0000*4F
$GPGSA,A,3,02,25,29,30,31,12,16,21,05,10,,,1.4,0.8,1.2*30
$GPRMC,233441.000,A,4740.5887,N,12224.8589,W,4.75,254.32,211010,,,A*76
$GPGGA,233442.000,4740.5884,N,12224.8608,W,1,10,0.8,-2.2,M,-17.3,M,,0000*45
$GPGSA,A,3,02,25,29,30,31,12,16,21,05,10,,,1.4,0.8,1.2*30
$GPRMC,233442.000,A,4740.5884,N,12224.8608,W,4.82,255.46,211010,,,A*76
$GPGGA,233443.000,4740.5881,N,12224.8627,W,1,10,0.8,-2.3,M,-17.3,M,,0000*4D
$GPGSA,A,3,02,25,29,30,31,12,16,21,05,10,,,1.4,0.8,1.2*30
$GPRMC,233443.000,A,4740.5881,N,12224.8627,W,4.93,256.03,211010,,,A*7D
$GPGGA,233444.000,4740.5877,N,12224.8647,W,1,10,0.8,-2.3,M,-17.3,M,,0000*45
$GPGSA,A,3,02,25,29,30,31,12,16,21,05,10,,,1.4,0.8,1.2*30
$GPGSV,3,1,12,29,81,320,44,05,53,078,39,30,48,219,38,25,39,196,42*76
EPOCH
1287704084
$GPGSV,3,3,12,16,10,324,35,31,09,274,40,26,04,116,38,18,03,199,34*70
$GPRMC,233444.000,A,4740.5877,N,12224.8647,W,4.79,255.64,211010,,,A*73
$GPGGA,233445.000,4740.5875,N,12224.8666,W,1,10,0.8,-2.4,M,-17.3,M,,0000*42
$GPGSA,A,3,02,25,29,30,31,12,16,21,05,10,,,1.4,0.8,1.2*30
$GPRMC,233445.000,A,4740.5875,N,12224.8666,W,4.78,255.66,211010,,,A*70
$GPGGA,233446.000,4740.5871,N,12224.8685,W,1,10,0.8,-2.5,M,-17.3,M,,0000*49
$GPGSA,A,3,02,25,29,30,31,12,16,21,05,10,,,1.4,0.8,1.2*30
$GPRMC,233446.000,A,4740.5871,N,12224.8685,W,4.72,255.65,211010,,,A*73
$GPGGA,233447.000,4740.5868,N,12224.8704,W,1,10,0.8,-2.5,M,-17.3,M,,0000*48
$GPGSA,A,3,02,25,29,30,31,12,16,21,05,10,,,1.4,0.8,1.2*30
$GPRMC,233447.000,A,4740.5868,N,12224.8704,W,4.75,256.42,211010,,,A*73
$GPGGA,233448.000,4740.5865,N,12224.8723,W,1,10,0.8,-2.6,M,-17.3,M,,0000*4C
EPOCH
1287704088
$GPRMC,233448.000,A,4740.5865,N,12224.8723,W,4.75,257.14,211010,,,A*76
$GPGGA,233449.000,4740.5863,N,12224.8742,W,1,10,0.8,-2.7,M,-17.3,M,,0000*4D
$GPGSA,A,3,02,25,29,30,31,12,16,21,05,10,,,1.4,0.8,1.2*30
$GPGSV,3,1,12,29,81,320,44,05,53,078,39,30,48,219,38,25,39,196,43*77
$GPGSV,3,2,12,21,37,251,41,10,17,042,30,02,15,067,33,12,12,171,29*76
$GPGSV,3,3,12,16,10,324,35,31,09,274,40,26,04,116,38,18,03,199,39*7D
$GPRMC,233449.000,A,4740.5863,N,12224.8742,W,4.76,257.15,211010,,,A*74
$GPGGA,233450.000,4740.5860,N,12224.8760,W,1,10,0.8,-2.7,M,-17.3,M,,0000*46
$GPGSA,A,3,02,25,29,30,31,12,16,21,05,10,,,1.4,0.8,1.2*30
$GPRMC,233450.000,A,4740.5860,N,12224.8760,W,4.55,258.20,211010,,,A*77
$GPGGA,233451.000,4740.5858,N,12224.8779,W,1,10,0.8,-2.8,M,-17.3,M,,0000*4B
$GPGSA,A,3,02,25,29,30,31,12,16,21,05,10,,,1.4,0.8,1.2*30
EPOCH
1287704091
$GPGGA,233452.000,4740.5855,N,12224.8797,W,1,10,0.8,-2.8,M,-17.3,M,,0000*45
$GPGSA,A,3,02,25,29,30,31,12,16,21,05,10,,,1.4,0.8,1.2*30
$GPRMC,233452.000,A,4740.5855,N,12224.8797,W,4.61,259.14,211010,,,A*7A
$GPGGA,233453.000,4740.5853,N,12224.8816,W,1,10,0.8,-2.9,M,-17.3,M,,0000*45
$GPGSA,A,3,02,25,29,30,31,12,16,21,05,10,,,1.4,0.8,1.2*30
$GPRMC,233453.000,A,4740.5853,N,12224.8816,W,4.58,258.83,211010,,,A*7E
$GPGGA,233454.000,4740.5850,N,12224.8834,W,1,10,0.8,-2.9,M,-17.3,M,,0000*41
$GPGSA,A,3,02,25,29,30,31,12,16,21,05,10,,,1.4,0.8,1.2*30
$GPGSV,3,1,12,29,81,320,44,05,53,078,39,30,48,219,39,25,39,196,43*76
$GPGSV,3,2,12,21,37,251,40,10,17,042,28,02,15,067,34,12,12,171,32*73
$GPGSV,3,3,12,16,10,324,34,31,09,274,40,26,04,116,30,18,03,199,38*75
$GPRMC,233454.000,A,4740.5850,N,12224.8834,W,4.64,258.55,211010,,,A*7E
EPOCH
1287704095
$GPGSA,A,3,02,25,29,30,31,12,16,21,05,10,,,1.4,0.8,1.2*30
$GPRMC,233455.000,A,4740.5848,N,12224.8853,W,4.70,259.27,211010,,,A*76
$GPGGA,233456.000,4740.5846,N,12224.8872,W,1,10,0.8,-3.0,M,-17.3,M,,0000*4E
$GPGSA,A,3,02,25,29,30,31,12,16,21,05,10,,,1.4,0.8,1.2*30
$GPRMC,233456.000,A,4740.5846,N,12224.8872,W,4.72,258.04,211010,,,A*7A
$GPGGA,233457.000,4740.5843,N,12224.8891,W,1,10,0.8,-3.1,M,-17.3,M,,0000*46
$GPGSA,A,3,02,25,29,30,31,12,16,21,05,10,,,1.4,0.8,1.2*30
$GPRMC,233457.000,A,4740.5843,N,12224.8891,W,4.61,258.65,211010,,,A*76
$GPGGA,233458.000,4740.5841,N,12224.8910,W,1,10,0.8,-3.2,M,-17.3,M,,0000*40
$GPGSA,A,3,02,25,29,30,31,12,16,21,05,10,,,1.4,0.8,1.2*30
$GPRMC,233458.000,A,4740.5841,N,12224.8910,W,4.66,259.57,211010,,,A*74
$GPGGA,233459.000,4740.5839,N,12224.8928,W,1,10,0.8,-3.2,M,-17.3,M,,0000*45
EPOCH
1287704099
$GPGSV,3,1,12,29,81,320,43,05,53,078,38,30,48,219,40,25,39,196,42*7F
$GPGSV,3,2,12,21,37,251,40,10,17,042,23,02,15,067,34,12,12,171,33*79
$GPGSV,3,3,12,16,10,324,34,31,09,274,40,26,04,116,30,18,03,199,38*75
$GPRMC,233459.000,A,4740.5839,N,12224.8928,W,4.67,257.66,211010,,,A*7C
$GPGGA,233500.000,4740.5836,N,12224.8948,W,1,10,0.8,-3.3,M,-17.3,M,,0000*40
$GPGSA,A,3,02,25,29,30,31,12,16,21,05,10,,,1.4,0.8,1.2*30
$GPRMC,233500.000,A,4740.5836,N,12224.8948,W,4.82,258.81,211010,,,A*75
$GPGGA,233501.000,4740.5834,N,12224.8967,W,1,10,0.8,-3.3,M,-17.3,M,,0000*4E
$GPGSA,A,3,02,25,29,30,31,12,16,21,05,10,,,1.4,0.8,1.2*30
$GPRMC,233501.000,A,4740.5834,N,12224.8967,W,4.77,257.94,211010,,,A*7A
$GPGGA,233502.000,4740.5831,N,12224.8986,W,1,10,0.8,-3.4,M,-17.3,M,,0000*40
$GPGSA,A,3,02,25,29,30,31,12,16,21,05,10,,,1.4,0.8,1.2*30
EPOCH
1287704102
$GPGGA,233503.000,4740.5828,N,12224.9006,W,1,10,0.8,-3.3,M,-17.3,M,,0000*4E
$GPGSA,A,3,02,25,29,30,31,12,16,21,05,10,,,1.4,0.8,1.2*30
$GPRMC,233503.000,A,4740.5828,N,12224.9006,W,4.87,255.02,211010,,,A*78
$GPGGA,233504.000,4740.5824,N,12224.9025,W,1,10,0.8,-3.4,M,-17.3,M,,0000*43
$GPGSA,A,3,02,25,29,30,31,12,16,21,05,10,,,1.4,0.8,1.2*30
$GPGSV,3,1,12,29,81,321,43,05,53,078,37,30,48,218,40,25,39,196,42*70
$GPGSV,3,2,12,21,37,251,40,10,17,042,34,02,15,067,34,12,12,171,26*7B
$GPGSV,3,3,12,16,10,323,34,31,09,274,40,26,04,116,38,18,04,199,39*7C
$GPRMC,233504.000,A,4740.5824,N,12224.9025,W,4.83,253.78,211010,,,A*7D
$GPGGA,233505.000,4740.5821,N,12224.9044,W,1,10,0.8,-3.4,M,-17.3,M,,0000*40
$GPGSA,A,3,02,25,29,30,31,12,16,21,05,10,,,1.4,0.8,1.2*30
$GPRMC,233505.000,A,4740.5821,N,12224.9044,W,4.79,254.06,211010,,,A*75
EPOCH
1287704106
$GPGSA,A,3,02,25,29,30,31,12,16,21,05,10,,,1.4,0.8,1.2*30
$GPRMC,233506.000,A,4740.5817,N,12224.9063,W,4.79,254.85,211010,,,A*7D
$GPGGA,233507.000,4740.5814,N,12224.9082,W,1,10,0.8,-3.5,M,-17.3,M,,0000*4F
$GPGSA,A,3,02,25,29,30,31,12,16,21,05,10,,,1.4,0.8,1.2*30
$GPRMC,233507.000,A,4740.5814,N,12224.9082,W,4.72,253.94,211010,,,A*7C
$GPGGA,233508.000,4740.5810,N,12224.9101,W,1,10,0.8,-3.6,M,-17.3,M,,0000*4D
$GPGSA,A,3,02,25,29,30,31,12,16,21,05,10,,,1.4,0.8,1.2*30
$GPRMC,233508.000,A,4740.5810,N,12224.9101,W,4.81,255.12,211010,,,A*79
$GPGGA,233509.000,4740.5807,N,12224.9120,W,1,10,0.8,-3.6,M,-17.3,M,,0000*49
$GPGSA,A,3,02,25,29,30,31,12,16,21,05,10,,,1.4,0.8,1.2*30
$GPGSV,3,1,12,29,81,321,44,05,53,078,39,30,48,218,35,25,39,196,42*7B
$GPGSV,3,2,12,21,37,251,40,10,17,042,32,02,15,067,35,12,12,171,25*7F
EPOCH
1287704109
$GPRMC,233509.000,A,4740.5807,N,12224.9120,W,4.77,254.17,211010,,,A*70
$GPGGA,233510.000,4740.5804,N,12224.9139,W,1,10,0.8,-3.7,M,-17.3,M,,0000*4B
$GPGSA,A,3,02,25,29,30,31,12,16,21,05,10,,,1.4,0.8,1.2*30
$GPRMC,233510.000,A,4740.5804,N,12224.9139,W,4.76,254.85,211010,,,A*79
$GPGGA,233511.000,4740.5800,N,12224.9158,W,1,10,0.8,-3.8,M,-17.3,M,,0000*46
$GPGSA,A,3,02,25,29,30,31,12,16,21,05,10,,,1.4,0.8,1.2*30
$GPRMC,233511.000,A,4740.5800,N,12224.9158,W,4.73,254.39,211010,,,A*79
$GPGGA,233512.000,4740.5797,N,12224.9177,W,1,10,0.8,-3.8,M,-17.3,M,,0000*49
$GPGSA,A,3,02,25,29,30,31,12,16,21,05,10,,,1.4,0.8,1.2*30
$GPRMC,233512.000,A,4740.5797,N,12224.9177,W,4.74,252.23,211010,,,A*7C
$GPGGA,233513.000,4740.5793,N,12224.9196,W,1,10,0.8,-3.9,M,-17.3,M,,0000*42
$GPGSA,A,3,02,25,29,30,31,12,16,21,05,10,,,1.4,0.8,1.2*30
EPOCH
1287704113
$GPGGA,233514.000,4740.5790,N,12224.9215,W,1,10,0.8,-4.0,M,-17.3,M,,0000*40
$GPGSA,A,3,02,25,29,30,31,12,16,21,05,10,,,1.4,0.8,1.2*30
$GPGSV,3,1,12,29,81,321,44,05,53,078,38,30,48,218,36,25,39,196,41*7A
$GPGSV,3,2,12,21,37,251,40,10,17,042,32,02,15,067,35,12,12,171,34*7F
$GPGSV,3,3,12,16,10,323,35,31,09,274,40,26,04,116,38,18,04,199,42*71
$GPRMC,233514.000,A,4740.5790,N,12224.9215,W,4.95,252.70,211010,,,A*73
$GPGGA,233515.000,4740.5786,N,12224.9235,W,1,10,0.8,-3.9,M,-17.3,M,,0000*4A
$GPGSA,A,3,02,25,29,30,31,12,16,21,05,10,,,1.4,0.8,1.2*30
$GPRMC,233515.000,A,4740.5786,N,12224.9235,W,4.86,253.58,211010,,,A*7E
$GPGGA,233516.000,4740.5783,N,12224.9255,W,1,10,0.8,-3.8,M,-17.3,M,,0000*4B
$GPGSA,A,3,02,25,29,30,31,12,16,21,05,10,,,1.4,0.8,1.2*30
$GPRMC,233516.000,A,4740.5783,N,12224.9255,W,4.90,252.86,211010,,,A*7B
EPOCH
1287704117
$GPGSA,A,3,02,25,29,30,31,12,16,21,05,10,,,1.4,0.8,1.2*30
$GPRMC,233517.000,A,4740.5779,N,12224.9275,W,4.78,253.52,211010,,,A*73
$GPGGA,233518.000,4740.5776,N,12224.9291,W,1,09,0.8,-3.7,M,-17.3,M,,0000*40
$GPGSA,A,3,02,25,30,31,12,16,21,05,10,,,,1.7,0.8,1.5*3F
$GPRMC,233518.000,A,4740.5776,N,12224.9291,W,3.75,241.19,211010,,,A*7F
$GPGGA,233519.000,4740.5770,N,12224.9307,W,1,09,0.8,-3.6,M,-17.3,M,,0000*48
$GPGSA,A,3,02,25,30,31,12,16,21,05,10,,,,1.7,0.8,1.5*3F
$GPGSV,3,1,12,29,81,321,,05,53,078,24,30,48,218,24,25,39,196,26*75
$GPGSV,3,2,12,21,37,251,25,10,17,042,25,02,15,067,17,12,12,171,24*7B
$GPGSV,3,3,12,16,10,323,23,31,09,274,26,26,04,116,25,18,04,199,22*7C
$GPRMC,233519.000,A,4740.5770,N,12224.9307,W,4.83,244.76,211010,,,A*74
$GPGGA,233520.000,4740.5766,N,12224.9326,W,1,10,0.8,-3.5,M,-17.3,M,,0000*4D
EPOCH
1287704120
$GPRMC,233520.000,A,4740.5766,N,12224.9326,W,4.89,253.91,211010,,,A*7F
$GPGGA,233521.000,4740.5762,N,12224.9345,W,1,09,0.9,-3.4,M,-17.3,M,,0000*45
$GPGSA,A,3,02,25,29,30,31,12,16,21,05,,,,1.5,0.9,1.2*31
$GPRMC,233521.000,A,4740.5762,N,12224.9345,W,5.14,253.49,211010,,,A*7F
$GPGGA,233522.000,4740.5761,N,12224.9364,W,1,09,0.8,-3.3,M,-17.3,M,,0000*40
$GPGSA,A,3,02,25,29,30,31,12,16,05,10,,,,1.4,0.8,1.2*33
$GPRMC,233522.000,A,4740.5761,N,12224.9364,W,4.39,251.07,211010,,,A*7A
$GPGGA,233523.000,4740.5757,N,12224.9384,W,1,09,0.8,-3.4,M,-17.3,M,,0000*4D
$GPGSA,A,3,02,25,29,30,31,12,16,05,10,,,,1.4,0.8,1.2*33
$GPRMC,233523.000,A,4740.5757,N,12224.9384,W,4.94,255.01,211010,,,A*75
$GPGGA,233524.000,4740.5754,N,12224.9404,W,1,10,0.8,-3.4,M,-17.3,M,,0000*4E
$GPGSA,A,3,02,25,29,30,31,12,16,21,05,10,,,1.4,0.8,1.2*30
EPOCH
1287704124
$GPGSV,3,2,12,21,37,251,38,10,17,042,35,02,15,067,27,12,12,171,36*76
$GPGSV,3,3,12,16,10,323,33,31,09,274,37,26,04,116,37,18,04,199,39*74
$GPRMC,233524.000,A,4740.5754,N,12224.9404,W,4.90,256.61,211010,,,A*7F
$GPGGA,233525.000,4740.5751,N,12224.9423,W,1,10,0.8,-3.3,M,-17.3,M,,0000*48
$GPGSA,A,3,02,25,29,30,31,12,16,21,05,10,,,1.4,0.8,1.2*30
$GPRMC,233525.000,A,4740.5751,N,12224.9423,W,4.50,253.55,211010,,,A*70
$GPGGA,233526.000,4740.5747,N,12224.9442,W,1,10,0.8,-3.0,M,-17.3,M,,0000*48
$GPGSA,A,3,02,25,29,30,31,12,16,21,05,10,,,1.4,0.8,1.2*30
