EPOCH
1288224104
$GPRMC,000144.000,A,4736.9875,N,12223.2867,W,3.15,219.40,281010,,,D*75
$GPVTG,219.40,T,,M,3.15,N,5.84,K,D*38
$GPGGA,000145.000,4736.9868,N,12223.2878,W,2,9,0.88,1.1,M,-17.4,M,0000,0000*67
$GPGSA,A,3,15,16,29,25,05,30,18,21,26,,,,1.22,0.88,0.85*09
$GPGSV,3,1,10,29,74,132,41,21,57,269,45,05,38,054,41,51,33,159,36*7C
$GPGSV,3,2,10,30,30,209,41,16,26,312,35,18,25,202,30,26,20,099,21*7A
$GPGSV,3,3,10,25,17,190,42,15,15,131,30*77
$GPRMC,000145.000,A,4736.9868,N,12223.2878,W,3.56,224.74,281010,,,D*78
$GPVTG,224.74,T,,M,3.56,N,6.59,K,D*35
$GPGGA,000146.000,4736.9866,N,12223.2891,W,2,9,0.88,1.6,M,-17.4,M,0000,0000*6A
EPOCH
1288224106
$GPGSV,3,1,10,29,74,132,41,21,57,269,46,05,38,054,39,51,33,159,36*70
$GPGSV,3,2,10,30,30,209,41,16,26,312,35,18,25,202,30,26,20,099,22*79
$GPGSV,3,3,10,25,17,190,42,15,15,131,29*7F
$GPRMC,000146.000,A,4736.9866,N,12223.2891,W,4.19,235.68,281010,,,D*73
$GPVTG,235.68,T,,M,4.19,N,7.76,K,D*38
$GPGGA,000147.000,4736.9860,N,12223.2903,W,2,8,1.00,2.0,M,-17.4,M,0000,0000*62
$GPGSA,A,3,15,16,29,25,05,30,18,21,,,,,1.96,1.00,1.69*00
$GPGSV,3,1,10,29,74,132,41,21,57,269,46,05,38,054,38,51,33,159,31*76
$GPGSV,3,2,10,30,30,209,43,16,26,312,34,18,25,202,31,26,20,099,20*79
$GPGSV,3,3,10,25,17,190,43,15,15,131,28*7F
$GPRMC,000147.000,A,4736.9860,N,12223.2903,W,3.94,224.39,281010,,,D*78
$GPVTG,224.39,T,,M,3.94,N,7.30,K,D*3C
EPOCH
1288224108
$GPGSA,A,3,15,16,29,25,05,30,18,21,26,,,,1.87,0.92,1.63*04
$GPGSV,3,1,10,29,74,132,42,21,57,269,46,05,38,054,39,51,33,159,31*74
$GPGSV,3,2,10,30,30,209,43,16,26,312,34,18,25,202,29,26,20,099,28*78
$GPGSV,3,3,10,25,17,190,42,15,15,131,29*7F
$GPRMC,000148.000,A,4736.9853,N,12223.2915,W,3.69,219.85,281010,,,D*7B
$GPVTG,219.85,T,,M,3.69,N,6.83,K,D*3E
$GPGGA,000149.000,4736.9855,N,12223.2933,W,2,9,0.88,1.6,M,-17.4,M,0000,0000*6C
$GPGSA,A,3,15,16,29,25,05,30,18,21,26,,,,1.22,0.88,0.85*09
$GPGSV,3,1,10,29,74,132,42,21,57,269,45,05,38,054,40,51,33,159,36*7E
$GPGSV,3,2,10,30,30,209,41,16,26,312,35,18,25,202,30,26,20,099,27*7C
$GPGSV,3,3,10,25,17,190,42,15,15,131,27*71
$GPRMC,000149.000,A,4736.9855,N,12223.2933,W,3.45,229.29,281010,,,D*73
EPOCH
1288224109
$GPGGA,000150.000,4736.9854,N,12223.2952,W,2,9,0.88,-0.1,M,-17.4,M,0000,0000*49
$GPGSA,A,3,15,16,29,25,05,30,18,21,26,,,,1.22,0.88,0.85*09
$GPGSV,3,1,10,29,74,132,41,21,57,269,45,05,38,054,40,51,33,159,38*73
$GPGSV,3,2,10,30,30,209,43,16,26,312,35,18,25,202,31,26,20,099,34*7D
$GPGSV,3,3,10,25,17,190,42,15,15,131,28*7E
$GPRMC,000150.000,A,4736.9854,N,12223.2952,W,3.33,225.35,281010,,,D*7D
$GPVTG,225.35,T,,M,3.33,N,6.18,K,D*37
$GPGGA,000151.000,4736.9851,N,12223.2967,W,2,9,0.88,-0.7,M,-17.4,M,0000,0000*4D
$GPGSA,A,3,15,16,29,25,05,30,18,21,26,,,,1.23,0.88,0.85*08
$GPGSV,3,1,10,29,74,132,40,21,57,269,45,05,38,054,38,51,33,159,38*7D
$GPGSV,3,2,10,30,30,209,41,16,26,312,35,18,25,202,31,26,20,099,34*7F
$GPGSV,3,3,10,25,17,190,42,15,16,131,29*7C
EPOCH
1288224111
$GPVTG,234.83,T,,M,3.69,N,6.85,K,D*31
$GPGGA,000152.000,4736.9847,N,12223.2981,W,2,9,0.88,-1.0,M,-17.4,M,0000,0000*47
$GPGSA,A,3,15,16,29,25,05,30,18,21,26,,,,1.22,0.88,0.85*09
$GPGSV,3,1,10,29,74,132,40,21,57,269,45,05,38,054,40,51,33,159,38*72
$GPGSV,3,2,10,30,30,209,41,16,27,312,36,18,25,202,31,26,20,099,26*7E
$GPGSV,3,3,10,25,17,190,41,15,16,131,29*7F
$GPRMC,000152.000,A,4736.9847,N,12223.2981,W,3.82,233.67,281010,,,D*79
$GPVTG,233.67,T,,M,3.82,N,7.08,K,D*3D
$GPGGA,000153.000,4736.9845,N,12223.3001,W,2,9,0.88,-1.7,M,-17.4,M,0000,0000*43
$GPGSA,A,3,15,16,29,25,05,30,18,21,26,,,,1.23,0.88,0.85*08
$GPGSV,3,1,10,29,74,132,40,21,57,269,45,05,38,054,41,51,33,159,37*7C
$GPGSV,3,2,10,30,30,209,41,16,27,312,37,18,25,202,31,26,20,099,25*7C
EPOCH
1288224113
$GPRMC,000153.000,A,4736.9845,N,12223.3001,W,3.36,228.24,281010,,,D*78
$GPVTG,228.24,T,,M,3.36,N,6.23,K,D*37
$GPGGA,000154.000,4736.9840,N,12223.3014,W,2,9,0.88,-1.8,M,-17.4,M,0000,0000*4A
$GPGSA,A,3,15,16,29,25,05,30,18,21,26,,,,1.22,0.88,0.85*09
$GPGSV,3,1,10,29,74,132,40,21,57,269,45,05,38,054,41,51,33,159,35*7E
$GPGSV,3,2,10,30,30,209,42,16,27,312,38,18,25,202,32,26,20,099,25*73
$GPGSV,3,3,10,25,17,190,41,15,16,131,27*71
$GPRMC,000154.000,A,4736.9840,N,12223.3014,W,3.51,236.33,281010,,,D*76
$GPVTG,236.33,T,,M,3.51,N,6.51,K,D*3A
$GPGGA,000155.000,4736.9836,N,12223.3028,W,2,9,0.88,-1.5,M,-17.4,M,0000,0000*48
$GPGSA,A,3,15,16,29,25,05,30,18,21,26,,,,1.22,0.88,0.85*09
$GPGSV,3,1,10,29,74,132,40,21,57,269,44,05,38,054,39,51,33,159,35*70
EPOCH
1288224115
$GPGSV,3,3,10,25,17,190,40,15,16,131,27*70
$GPRMC,000155.000,A,4736.9836,N,12223.3028,W,3.92,240.58,281010,,,D*7A
$GPVTG,240.58,T,,M,3.92,N,7.27,K,D*39
$GPGGA,000156.000,4736.9830,N,12223.3040,W,2,9,0.92,-1.2,M,-17.4,M,0000,0000*4F
$GPGSA,A,3,15,16,29,25,05,30,18,21,26,,,,1.88,0.92,1.64*0C
$GPGSV,3,1,10,29,74,132,40,21,57,269,45,05,38,054,41,51,33,159,34*7F
$GPGSV,3,2,10,30,30,209,41,16,27,312,29,18,25,202,33,26,20,099,26*72
$GPGSV,3,3,10,25,17,190,40,15,16,131,27*70
$GPRMC,000156.000,A,4736.9830,N,12223.3040,W,3.42,224.82,281010,,,D*79
$GPVTG,224.82,T,,M,3.42,N,6.33,K,D*35
$GPGGA,000157.000,4736.9824,N,12223.3048,W,2,8,0.96,-1.1,M,-17.4,M,0000,0000*45
$GPGSA,A,3,15,16,29,25,05,30,18,21,,,,,1.29,0.96,0.86*0A
EPOCH
1288224117
$GPGSV,3,2,10,30,30,209,41,16,27,312,30,18,25,202,25,26,20,099,19*71
$GPGSV,3,3,10,25,17,190,41,15,16,131,28*7E
$GPRMC,000157.000,A,4736.9824,N,12223.3048,W,3.35,228.01,281010,,,D*72
$GPVTG,228.01,T,,M,3.35,N,6.20,K,D*30
$GPGSA,A,3,15,16,29,25,05,30,18,21,26,,,,1.22,0.88,0.85*09
$GPGSV,3,1,10,29,74,132,40,21,57,269,46,05,38,054,39,51,33,159,34*73
$GPGSV,3,2,10,30,30,209,42,16,27,312,31,18,25,202,26,26,20,099,30*7B
$GPGSV,3,3,10,25,17,190,42,15,16,131,28*7D
$GPRMC,000158.000,A,4736.9818,N,12223.3057,W,3.54,228.99,281010,,,D*7A
$GPVTG,228.99,T,,M,3.54,N,6.57,K,D*36
$GPGGA,000159.000,4736.9816,N,12223.3065,W,2,9,0.88,-1.9,M,-17.4,M,0000,0000*43
$GPGSA,A,3,15,16,29,25,05,30,18,21,26,,,,1.23,0.88,0.85*08
EPOCH
1288224119
$GPGSV,3,2,10,30,30,209,41,16,27,312,39,18,25,202,25,26,20,099,29*7B
$GPGSV,3,3,10,25,17,190,42,15,16,131,30*74
$GPRMC,000159.000,A,4736.9816,N,12223.3065,W,3.42,230.58,281010,,,D*77
$GPVTG,230.58,T,,M,3.42,N,6.34,K,D*30
$GPGGA,000200.000,4736.9807,N,12223.3071,W,2,8,0.96,-1.9,M,-17.4,M,0000,0000*47
$GPGSA,A,3,15,16,29,25,05,30,18,21,,,,,1.29,0.96,0.86*0A
$GPGSV,3,1,10,29,74,132,40,21,57,269,46,05,38,054,40,51,33,159,34*7D
$GPGSV,3,2,10,30,30,209,39,16,27,312,31,18,25,202,26,26,20,099,20*76
$GPGSV,3,3,10,25,17,190,42,15,16,131,31*75
$GPRMC,000200.000,A,4736.9807,N,12223.3071,W,3.47,223.39,281010,,,D*7D
$GPVTG,223.39,T,,M,3.47,N,6.43,K,D*30
$GPGGA,000201.000,4736.9803,N,12223.3080,W,2,8,0.96,-2.6,M,-17.4,M,0000,0000*40
EPOCH
1288224121
$GPGSV,3,1,10,29,74,132,39,21,57,269,45,05,38,054,39,51,33,159,35*7F
$GPGSV,3,2,10,30,30,209,39,16,27,312,40,18,25,202,26,26,20,099,20*70
$GPGSV,3,3,10,25,16,190,43,15,16,131,32*76
$GPRMC,000201.000,A,4736.9803,N,12223.3080,W,3.49,228.03,281010,,,D*7A
$GPVTG,228.03,T,,M,3.49,N,6.46,K,D*39
$GPGGA,000202.000,4736.9795,N,12223.3086,W,2,9,0.88,-2.5,M,-17.4,M,0000,0000*48
$GPGSA,A,3,15,16,29,25,05,30,18,21,26,,,,1.22,0.88,0.85*09
$GPGSV,3,1,10,29,74,132,39,21,57,269,44,05,38,054,37,51,33,159,36*73
$GPGSV,3,2,10,30,30,209,40,16,27,312,39,18,25,202,40,26,20,099,31*70
$GPGSV,3,3,10,25,16,190,43,15,16,131,33*77
$GPRMC,000202.000,A,4736.9795,N,12223.3086,W,3.71,224.71,281010,,,D*7D
$GPVTG,224.71,T,,M,3.71,N,6.88,K,D*39
EPOCH
1288224123
$GPGSA,A,3,15,16,29,25,05,30,18,21,26,,,,1.22,0.88,0.85*09
$GPGSV,3,1,10,29,74,132,39,21,57,269,42,05,38,054,37,51,33,159,37*74
$GPGSV,3,2,10,30,30,209,40,16,27,312,40,18,25,202,40,26,20,099,31*7E
$GPGSV,3,3,10,25,16,190,43,15,16,131,31*75
$GPRMC,000203.000,A,4736.9790,N,12223.3098,W,3.66,233.20,281010,,,D*72
$GPVTG,233.20,T,,M,3.66,N,6.79,K,D*33
$GPGGA,000204.000,4736.9785,N,12223.3104,W,2,9,0.88,-2.2,M,-17.4,M,0000,0000*43
$GPGSA,A,3,15,16,29,25,05,30,18,21,26,,,,1.22,0.88,0.85*09
$GPGSV,3,1,10,29,74,132,37,21,57,269,41,05,38,054,45,51,33,159,37*7C
$GPGSV,3,2,10,30,30,209,41,16,27,312,41,18,25,202,40,26,20,099,33*7C
$GPGSV,3,3,10,25,16,190,41,15,16,131,31*77
$GPRMC,000204.000,A,4736.9785,N,12223.3104,W,3.70,226.48,281010,,,D*78
EPOCH
1288224124
$GPGGA,000205.000,4736.9777,N,12223.3111,W,2,9,0.88,-2.2,M,-17.4,M,0000,0000*4B
$GPGSA,A,3,15,16,29,25,05,30,18,21,26,,,,1.22,0.88,0.85*09
$GPGSV,3,1,10,29,74,132,37,21,57,269,42,05,38,054,35,51,33,159,37*78
$GPGSV,3,2,10,30,30,209,40,16,27,312,41,18,25,202,39,26,20,099,33*73
$GPGSV,3,3,10,25,16,190,33,15,16,131,33*70
$GPRMC,000205.000,A,4736.9777,N,12223.3111,W,3.53,227.64,281010,,,D*7E
$GPVTG,227.64,T,,M,3.53,N,6.55,K,D*3E
$GPGSA,A,3,15,16,29,25,05,30,18,21,26,,,,1.22,0.88,0.85*09
$GPGSV,3,1,10,29,74,132,38,21,57,269,43,05,38,054,37,51,33,159,36*75
$GPGSV,3,2,10,30,30,208,39,16,27,312,42,18,25,202,38,26,20,099,35*78
$GPGSV,3,3,10,25,16,190,34,15,16,131,40*73
$GPRMC,000206.000,A,4736.9768,N,12223.3117,W,3.33,216.45,281010,,,D*72
EPOCH
1288224126
$GPGGA,000207.000,4736.9761,N,12223.3123,W,2,9,0.88,-3.2,M,-17.4,M,0000,0000*4E
$GPGSA,A,3,15,16,29,25,05,30,18,21,26,,,,1.22,0.88,0.85*09
$GPGSV,3,1,10,29,74,132,37,21,57,269,44,05,38,054,39,51,33,159,37*72
$GPGSV,3,2,10,30,30,208,38,16,27,312,41,18,25,202,38,26,20,099,36*79
$GPGSV,3,3,10,25,16,190,36,15,16,131,39*7F
$GPRMC,000207.000,A,4736.9761,N,12223.3123,W,3.38,217.77,281010,,,D*76
$GPVTG,217.77,T,,M,3.38,N,6.27,K,D*37
$GPGGA,000208.000,4736.9751,N,12223.3130,W,2,9,0.88,-2.9,M,-17.4,M,0000,0000*4A
$GPGSA,A,3,15,16,29,25,05,30,18,21,26,,,,1.22,0.88,0.85*09
$GPGSV,3,1,10,29,74,132,30,21,57,269,44,05,38,054,40,51,33,159,*7F
$GPGSV,3,2,10,30,30,208,37,16,27,312,40,18,25,202,37,26,20,099,35*7B
$GPGSV,3,3,10,25,16,190,43,15,16,131,38*7C
EPOCH
1288224128
$GPVTG,219.24,T,,M,3.73,N,6.91,K,D*3D
$GPGGA,000209.000,4736.9747,N,12223.3143,W,2,9,0.88,-3.2,M,-17.4,M,0000,0000*42
$GPGSA,A,3,15,16,29,25,05,30,18,21,26,,,,1.23,0.88,0.85*08
$GPGSV,3,1,10,29,74,132,32,21,57,269,45,05,38,054,40,51,33,159,35*7A
$GPGSV,3,2,10,30,30,208,39,16,27,312,39,18,25,202,27,26,20,099,34*7B
$GPGSV,3,3,10,25,16,190,42,15,16,131,31*74
$GPRMC,000209.000,A,4736.9747,N,12223.3143,W,3.62,230.91,281010,,,D*78
$GPVTG,230.91,T,,M,3.62,N,6.70,K,D*37
$GPGGA,000210.000,4736.9740,N,12223.3154,W,2,9,0.88,-3.1,M,-17.4,M,0000,0000*48
$GPGSA,A,3,15,16,29,25,05,30,18,21,26,,,,1.22,0.88,0.85*09
$GPGSV,3,1,10,29,74,132,32,21,57,269,45,05,38,054,38,51,33,159,33*73
$GPGSV,3,2,10,30,30,208,38,16,27,312,37,18,25,202,28,26,20,099,33*7C
EPOCH
1288224130
$GPRMC,000210.000,A,4736.9740,N,12223.3154,W,4.24,228.64,281010,,,D*77
$GPVTG,228.64,T,,M,4.24,N,7.85,K,D*3A
$GPGGA,000211.000,4736.9735,N,12223.3169,W,2,9,0.92,-2.9,M,-17.4,M,0000,0000*47
$GPGSA,A,3,15,16,29,25,05,30,18,21,26,,,,1.88,0.92,1.64*0C
$GPGSV,3,1,10,29,74,132,34,21,57,269,45,05,38,054,37,51,33,159,31*78
$GPGSV,3,2,10,30,30,208,39,16,27,312,37,18,25,202,30,26,20,099,25*73
$GPGSV,3,3,10,25,16,190,42,15,16,131,29*7D
$GPRMC,000211.000,A,4736.9735,N,12223.3169,W,3.69,237.17,281010,,,D*7E
$GPVTG,237.17,T,,M,3.69,N,6.83,K,D*39
$GPGGA,000212.000,4736.9730,N,12223.3181,W,2,9,0.88,-2.6,M,-17.4,M,0000,0000*43
$GPGSA,A,3,15,16,29,25,05,30,18,21,26,,,,1.22,0.88,0.85*09
$GPGSV,3,1,10,29,74,132,35,21,57,269,44,05,38,054,38,51,33,159,30*76
EPOCH
1288224132
$GPGSV,3,3,10,25,16,190,43,15,16,131,28*7D
$GPRMC,000212.000,A,4736.9730,N,12223.3181,W,3.33,226.76,281010,,,D*76
$GPVTG,226.76,T,,M,3.33,N,6.16,K,D*3D
$GPGGA,000213.000,4736.9726,N,12223.3194,W,2,9,0.88,-2.1,M,-17.4,M,0000,0000*46
$GPGSA,A,3,15,16,29,25,05,30,18,21,26,,,,1.22,0.88,0.85*09
$GPGSV,3,1,10,29,74,132,36,21,57,269,44,05,38,054,38,51,33,159,35*70
$GPGSV,3,2,10,30,30,208,41,16,27,312,35,18,25,202,33,26,20,099,25*7D
$GPGSV,3,3,10,25,16,190,42,15,16,131,27*73
$GPRMC,000213.000,A,4736.9726,N,12223.3194,W,4.00,237.64,281010,,,D*70
$GPVTG,237.64,T,,M,4.00,N,7.41,K,D*3A
$GPGGA,000214.000,4736.9722,N,12223.3212,W,2,8,0.96,-2.5,M,-17.4,M,0000,0000*42
$GPGSA,A,3,15,16,29,25,05,30,21,26,,,,,1.90,0.96,1.64*08
EPOCH
1288224134
$GPGSV,3,2,10,30,30,208,41,16,27,312,37,18,25,202,23,26,20,099,25*7E
$GPGSV,3,3,10,25,16,190,42,15,16,131,19*7E
$GPRMC,000214.000,A,4736.9722,N,12223.3212,W,3.56,237.71,281010,,,D*7E
$GPVTG,237.71,T,,M,3.56,N,6.59,K,D*32
$GPGGA,000215.000,4736.9717,N,12223.3223,W,2,9,0.88,-2.0,M,-17.4,M,0000,0000*4C
$GPGSA,A,3,15,16,29,25,05,30,18,21,26,,,,1.23,0.88,0.85*08
$GPGSV,3,1,10,29,74,132,38,21,57,269,45,05,38,054,38,51,33,159,36*7C
$GPGSV,3,2,10,30,30,208,41,16,27,312,30,18,25,202,25,26,20,099,25*7F
$GPGSV,3,3,10,25,16,190,42,15,16,131,28*7C
$GPRMC,000215.000,A,4736.9717,N,12223.3223,W,2.96,225.61,281010,,,D*74
$GPVTG,225.61,T,,M,2.96,N,5.48,K,D*3E
$GPGGA,000216.000,4736.9711,N,12223.3235,W,2,9,0.88,-1.8,M,-17.4,M,0000,0000*45
EPOCH
1288224136
$GPGSV,3,1,10,29,74,132,38,21,57,269,44,05,38,054,39,51,33,159,39*73
$GPGSV,3,2,10,30,30,208,39,16,27,312,32,18,25,202,25,26,20,099,26*71
$GPGSV,3,3,10,25,16,190,42,15,16,131,27*73
$GPRMC,000216.000,A,4736.9711,N,12223.3235,W,3.25,220.58,281010,,,D*70
$GPVTG,220.58,T,,M,3.25,N,6.02,K,D*35
$GPGGA,000217.000,4736.9707,N,12223.3250,W,2,9,0.88,-2.2,M,-17.4,M,0000,0000*49
$GPGSA,A,3,15,16,29,25,05,30,18,21,26,,,,1.22,0.88,0.85*09
$GPGSV,3,1,10,29,74,132,39,21,57,269,44,05,38,054,40,51,33,159,34*71
$GPGSV,3,2,10,30,30,208,39,16,27,312,33,18,25,202,27,26,20,099,27*73
$GPGSV,3,3,10,25,16,190,42,15,16,131,27*73
$GPRMC,000217.000,A,4736.9707,N,12223.3250,W,3.11,229.39,281010,,,D*7C
$GPVTG,229.39,T,,M,3.11,N,5.76,K,D*3C
EPOCH
1288224138
$GPGSA,A,3,15,16,29,25,05,30,18,21,26,,,,1.23,0.88,0.85*08
$GPGSV,3,1,10,29,74,132,38,21,57,269,45,05,38,054,42,51,33,159,36*71
$GPGSV,3,2,10,30,30,208,40,16,27,312,34,18,25,202,26,26,20,099,29*75
$GPGSV,3,3,10,25,16,190,42,15,16,131,29*7D
$GPRMC,000218.000,A,4736.9700,N,12223.3259,W,3.36,227.20,281010,,,D*7E
$GPVTG,227.20,T,,M,3.36,N,6.23,K,D*3C
$GPGGA,000219.000,4736.9695,N,12223.3270,W,2,9,0.88,-2.0,M,-17.4,M,0000,0000*4D
$GPGSA,A,3,15,16,29,25,05,30,18,21,26,,,,1.22,0.88,0.85*09
$GPGSV,3,1,10,29,74,132,38,21,57,269,46,05,38,054,40,51,33,159,38*7E
$GPGSV,3,2,10,30,30,208,39,16,27,312,34,18,25,202,27,26,20,099,29*7A
$GPGSV,3,3,10,25,16,190,42,15,16,131,28*7C
$GPRMC,000219.000,A,4736.9695,N,12223.3270,W,3.42,228.80,281010,,,D*7F
EPOCH
1288224139
$GPGGA,000220.000,4736.9690,N,12223.3284,W,2,9,0.88,-1.9,M,-17.4,M,0000,0000*43
$GPGSA,A,3,15,16,29,25,05,30,18,21,26,,,,1.23,0.88,0.85*08
$GPGSV,3,1,10,29,74,132,38,21,57,269,46,05,38,054,41,51,33,159,38*7F
$GPGSV,3,2,10,30,30,208,40,16,27,312,35,18,25,202,28,26,20,099,30*72
$GPGSV,3,3,10,25,16,190,42,15,16,131,28*7C
$GPRMC,000220.000,A,4736.9690,N,12223.3284,W,3.42,229.50,281010,,,D*77
$GPVTG,229.50,T,,M,3.42,N,6.33,K,D*37
$GPGGA,000221.000,4736.9683,N,12223.3289,W,2,9,0.88,-1.5,M,-17.4,M,0000,0000*41
$GPGSA,A,3,15,16,29,25,05,30,18,21,26,,,,1.23,0.88,0.85*08
$GPGSV,3,1,10,29,74,132,38,21,57,269,45,05,38,054,41,51,33,159,36*72
$GPGSV,3,2,10,30,30,208,39,16,27,312,35,18,25,202,28,26,20,099,31*7D
$GPGSV,3,3,10,25,16,190,43,15,16,131,35*71
EPOCH
1288224141
$GPVTG,229.38,T,,M,3.91,N,7.24,K,D*30
$GPGGA,000222.000,4736.9675,N,12223.3295,W,2,9,0.92,-1.4,M,-17.4,M,0000,0000*4C
$GPGSA,A,3,15,16,29,25,05,30,18,21,26,,,,1.88,0.92,1.64*0C
$GPGSV,3,1,10,29,74,132,39,21,57,269,45,05,38,054,41,51,33,159,35*70
$GPGSV,3,2,10,30,30,208,40,16,27,312,35,18,25,202,28,26,20,099,31*73
$GPGSV,3,3,10,25,16,190,43,15,16,131,35*71
$GPRMC,000222.000,A,4736.9675,N,12223.3295,W,3.27,228.96,281010,,,D*76
$GPVTG,228.96,T,,M,3.27,N,6.06,K,D*39
$GPGGA,000223.000,4736.9671,N,12223.3308,W,2,9,0.88,-1.7,M,-17.4,M,0000,0000*44
$GPGSA,A,3,15,16,29,25,05,30,18,21,26,,,,1.23,0.88,0.85*08
$GPGSV,3,1,10,29,74,132,38,21,57,269,45,05,38,054,40,51,33,159,36*73
$GPGSV,3,2,10,30,30,208,40,16,27,312,36,18,25,202,29,26,20,099,31*71
EPOCH
1288224143
$GPRMC,000223.000,A,4736.9671,N,12223.3308,W,3.66,225.99,281010,,,D*71
$GPVTG,225.99,T,,M,3.66,N,6.78,K,D*37
$GPGGA,000224.000,4736.9663,N,12223.3322,W,2,9,0.88,-1.8,M,-17.4,M,0000,0000*47
$GPGSA,A,3,15,16,29,25,05,30,18,21,26,,,,1.23,0.88,0.85*08
$GPGSV,3,1,10,29,74,132,37,21,57,269,45,05,38,054,39,51,33,159,36*72
$GPGSV,3,2,10,30,30,208,39,16,27,311,36,18,25,202,37,26,20,099,30*72
$GPGSV,3,3,10,25,16,190,45,15,16,130,35*76
$GPRMC,000224.000,A,4736.9663,N,12223.3322,W,3.90,227.12,281010,,,D*75
$GPVTG,227.12,T,,M,3.90,N,7.23,K,D*30
$GPGGA,000225.000,4736.9658,N,12223.3337,W,2,9,0.92,-2.9,M,-17.4,M,0000,0000*43
$GPGSA,A,3,15,16,29,25,05,30,18,21,26,,,,1.88,0.92,1.64*0C
$GPGSV,3,1,10,29,74,132,38,21,57,269,45,05,38,054,40,51,33,159,37*72
EPOCH
1288224145
$GPGSV,3,3,10,25,16,190,44,15,16,130,35*77
$GPRMC,000225.000,A,4736.9658,N,12223.3337,W,3.78,231.80,281010,,,D*72
$GPVTG,231.80,T,,M,3.78,N,7.00,K,D*3B
$GPGGA,000226.000,4736.9652,N,12223.3346,W,2,9,0.88,-3.3,M,-17.4,M,0000,0000*4C
$GPGSA,A,3,15,16,29,25,05,30,18,21,26,,,,1.23,0.88,0.85*08
$GPGSV,3,1,10,29,74,132,38,21,57,269,45,05,38,054,41,51,33,159,36*72
$GPGSV,3,2,10,30,30,208,39,16,27,311,37,18,26,202,34,26,20,099,31*72
$GPGSV,3,3,10,25,16,190,45,15,16,130,35*76
$GPRMC,000226.000,A,4736.9652,N,12223.3346,W,3.50,225.45,281010,,,D*7B
$GPVTG,225.45,T,,M,3.50,N,6.49,K,D*31
$GPGGA,000227.000,4736.9646,N,12223.3356,W,2,9,0.88,-2.9,M,-17.4,M,0000,0000*42
$GPGSA,A,3,15,16,29,25,05,30,18,21,26,,,,1.22,0.88,0.85*09
EPOCH
1288224147
$GPGSV,3,2,10,30,30,208,38,16,27,311,29,18,26,202,36,26,20,099,30*7F
$GPGSV,3,3,10,25,16,190,45,15,16,130,34*77
$GPRMC,000227.000,A,4736.9646,N,12223.3356,W,3.72,225.02,281010,,,D*7D
$GPVTG,225.02,T,,M,3.72,N,6.89,K,D*3E
$GPGGA,000228.000,4736.9640,N,12223.3368,W,2,9,0.88,-3.0,M,-17.4,M,0000,0000*4E
$GPGSA,A,3,15,16,29,25,05,30,18,21,26,,,,1.23,0.88,0.85*08
$GPGSV,3,1,10,29,74,132,38,21,57,269,45,05,38,054,39,51,33,159,36*7D
$GPGSV,3,2,10,30,30,208,39,16,27,311,37,18,26,202,27,26,20,099,31*70
$GPGSV,3,3,10,25,16,190,45,15,16,130,34*77
$GPRMC,000228.000,A,4736.9640,N,12223.3368,W,3.74,225.55,281010,,,D*7D
$GPVTG,225.55,T,,M,3.74,N,6.93,K,D*31
$GPGGA,000229.000,4736.9635,N,12223.3379,W,2,9,0.88,-3.0,M,-17.4,M,0000,0000*4D
EPOCH
1288224149
$GPGSV,3,1,10,29,74,132,38,21,57,269,45,05,38,054,40,51,33,159,37*72
$GPGSV,3,2,10,30,30,208,38,16,27,311,37,18,26,202,38,26,20,099,30*7E
$GPGSV,3,3,10,25,16,190,45,15,16,130,34*77
$GPRMC,000229.000,A,4736.9635,N,12223.3379,W,3.62,228.12,281010,,,D*77
$GPVTG,228.12,T,,M,3.62,N,6.70,K,D*35
$GPGGA,000230.000,4736.9629,N,12223.3391,W,2,9,0.88,-2.4,M,-17.4,M,0000,0000*4B
$GPGSA,A,3,15,16,29,25,05,30,18,21,26,,,,1.22,0.88,0.85*09
$GPGSV,3,1,10,29,74,132,38,21,57,269,45,05,38,054,38,51,33,159,36*7C
$GPGSV,3,2,10,30,30,208,38,16,27,311,37,18,26,202,27,26,20,099,28*79
$GPGSV,3,3,10,25,16,190,45,15,16,130,35*76
$GPRMC,000230.000,A,4736.9629,N,12223.3391,W,3.57,226.29,281010,,,D*74
$GPVTG,226.29,T,,M,3.57,N,6.61,K,D*35
EPOCH
1288224151
$GPGSA,A,3,15,16,29,25,05,30,18,21,26,,,,1.22,0.88,0.85*09
$GPGSV,3,1,10,29,74,132,39,21,57,269,45,05,38,054,37,51,33,159,36*72
$GPGSV,3,2,10,30,30,208,38,16,27,311,39,18,26,202,36,26,20,099,27*78
$GPGSV,3,3,10,25,16,190,45,15,16,130,35*76
$GPRMC,000231.000,A,4736.9622,N,12223.3402,W,3.98,231.36,281010,,,D*78
$GPVTG,231.36,T,,M,3.98,N,7.37,K,D*3C
$GPGGA,000232.000,4736.9618,N,12223.3413,W,2,9,0.92,-2.3,M,-17.4,M,0000,0000*4A
$GPGSA,A,3,15,16,29,25,05,30,18,21,26,,,,1.88,0.92,1.64*0C
$GPGSV,3,1,10,29,74,132,39,21,57,269,36,05,38,054,37,51,33,159,37*77
$GPGSV,3,2,10,30,30,208,38,16,27,311,38,18,26,202,35,26,20,099,27*7A
$GPGSV,3,3,10,25,16,190,45,15,16,130,35*76
$GPRMC,000232.000,A,4736.9618,N,12223.3413,W,4.13,228.79,281010,,,D*75
EPOCH
1288224152
$GPGGA,000233.000,4736.9613,N,12223.3419,W,2,9,0.92,-2.5,M,-17.4,M,0000,0000*4C
$GPGSA,A,3,15,16,29,25,05,30,18,21,26,,,,1.88,0.92,1.64*0C
$GPGSV,3,1,10,29,74,132,38,21,57,269,46,05,38,054,36,51,33,159,37*70
$GPGSV,3,2,10,30,30,208,39,16,27,311,38,18,26,202,35,26,20,099,29*75
$GPGSV,3,3,10,25,16,190,43,15,16,130,36*73
$GPRMC,000233.000,A,4736.9613,N,12223.3419,W,3.66,224.30,281010,,,D*71
$GPVTG,224.30,T,,M,3.66,N,6.78,K,D*35
$GPGGA,000234.000,4736.9608,N,12223.3428,W,2,9,0.88,-2.6,M,-17.4,M,0000,0000*4B
$GPGSA,A,3,15,16,29,25,05,30,18,21,26,,,,1.23,0.88,0.85*08
$GPGSV,3,1,10,29,74,132,38,21,57,269,46,05,38,054,36,51,33,159,38*7F
$GPGSV,3,2,10,30,30,208,39,16,27,311,37,18,26,202,35,26,20,098,36*75
$GPGSV,3,3,10,25,16,190,42,15,16,130,36*72
EPOCH
1288224154
$GPVTG,225.81,T,,M,3.76,N,6.96,K,D*3F
$GPGSA,A,3,15,16,29,25,05,30,18,21,26,,,,1.23,0.88,0.85*08
$GPGSV,3,1,10,29,74,132,38,21,57,269,45,05,38,054,38,51,33,159,37*7D
$GPGSV,3,2,10,30,30,208,40,16,27,311,37,18,26,202,34,26,20,098,35*79
$GPGSV,3,3,10,25,16,190,40,15,16,130,35*73
$GPRMC,000235.000,A,4736.9600,N,12223.3438,W,3.68,224.41,281010,,,D*7E
$GPVTG,224.41,T,,M,3.68,N,6.83,K,D*39
$GPGGA,000236.000,4736.9594,N,12223.3446,W,2,9,0.88,-2.5,M,-17.4,M,0000,0000*44
$GPGSA,A,3,15,16,29,25,05,30,18,21,26,,,,1.22,0.88,0.85*09
$GPGSV,3,1,10,29,74,132,38,21,57,269,44,05,38,054,36,51,33,159,37*72
$GPGSV,3,2,10,30,30,208,40,16,27,311,38,18,26,202,33,26,20,098,36*72
$GPGSV,3,3,10,25,16,190,39,15,16,130,36*7E
EPOCH
1288224156
$GPVTG,223.88,T,,M,3.81,N,7.06,K,D*30
$GPGGA,000237.000,4736.9587,N,12223.3453,W,2,9,0.88,-2.7,M,-17.4,M,0000,0000*41
$GPGSA,A,3,15,16,29,25,05,30,18,21,26,,,,1.23,0.88,0.85*08
$GPGSV,3,1,10,29,73,133,38,21,57,269,44,05,38,054,35,51,33,159,36*76
$GPGSV,3,2,10,30,30,208,40,16,27,311,37,18,26,202,31,26,20,098,35*7C
$GPGSV,3,3,10,25,16,190,38,15,16,130,36*7F
$GPRMC,000237.000,A,4736.9587,N,12223.3453,W,3.53,220.50,281010,,,D*71
$GPVTG,220.50,T,,M,3.53,N,6.55,K,D*3E
$GPGGA,000238.000,4736.9580,N,12223.3459,W,2,9,0.88,-2.4,M,-17.4,M,0000,0000*40
$GPGSA,A,3,15,16,29,25,05,30,18,21,26,,,,1.22,0.88,0.85*09
$GPGSV,3,1,10,29,73,133,38,21,57,269,42,05,38,054,33,51,33,159,36*76
$GPGSV,3,2,10,30,29,208,38,16,27,311,36,18,26,202,29,26,20,098,36*70
EPOCH
1288224158
$GPRMC,000238.000,A,4736.9580,N,12223.3459,W,3.80,218.82,281010,,,D*79
$GPVTG,218.82,T,,M,3.80,N,7.03,K,D*36
$GPGGA,000239.000,4736.9571,N,12223.3470,W,2,9,0.88,-2.5,M,-17.4,M,0000,0000*45
$GPGSA,A,3,15,16,29,25,05,30,18,21,26,,,,1.22,0.88,0.85*09
$GPGSV,3,1,10,29,73,133,39,21,57,269,42,05,38,054,35,51,33,159,37*70
$GPGSV,3,2,10,30,29,208,38,16,27,311,36,18,26,202,27,26,20,098,37*7F
$GPGSV,3,3,10,25,16,190,37,15,16,130,38*7E
$GPRMC,000239.000,A,4736.9571,N,12223.3470,W,3.68,215.79,281010,,,D*72
$GPVTG,215.79,T,,M,3.68,N,6.82,K,D*31
$GPGGA,000240.000,4736.9563,N,12223.3480,W,2,9,0.88,-2.2,M,-17.4,M,0000,0000*40
$GPGSA,A,3,15,16,29,25,05,30,18,21,26,,,,1.22,0.88,0.85*09
$GPGSV,3,1,10,29,73,133,39,21,57,269,41,05,38,054,35,51,33,159,37*73
EPOCH
1288224160
$GPGSV,3,3,10,25,16,190,36,15,16,130,38*7F
$GPRMC,000240.000,A,4736.9563,N,12223.3480,W,3.71,218.07,281010,,,D*7C
$GPVTG,218.07,T,,M,3.71,N,6.87,K,D*38
$GPGGA,000241.000,4736.9555,N,12223.3488,W,2,9,0.88,-2.4,M,-17.4,M,0000,0000*4A
$GPGSA,A,3,15,16,29,25,05,30,18,21,26,,,,1.23,0.88,0.85*08
$GPGSV,3,1,10,29,73,133,39,21,57,269,42,05,38,054,35,51,33,159,36*71
$GPGSV,3,2,10,30,29,208,39,16,27,311,36,18,26,202,28,26,20,098,37*71
$GPGSV,3,3,10,25,16,190,36,15,16,130,39*7E
$GPRMC,000241.000,A,4736.9555,N,12223.3488,W,3.51,216.75,281010,,,D*79
$GPVTG,216.75,T,,M,3.51,N,6.51,K,D*3A
$GPGGA,000242.000,4736.9545,N,12223.3498,W,2,9,0.88,-2.7,M,-17.4,M,0000,0000*4A
$GPGSA,A,3,15,16,29,25,05,30,18,21,26,,,,1.23,0.88,0.85*08
EPOCH
1288224162
$GPGSV,3,2,10,30,29,208,39,16,27,311,35,18,26,202,27,26,20,098,35*7F
$GPGSV,3,3,10,25,16,190,35,15,16,130,38*7C
$GPRMC,000242.000,A,4736.9545,N,12223.3498,W,4.06,218.53,281010,,,D*75
$GPVTG,218.53,T,,M,4.06,N,7.53,K,D*36
$GPGGA,000243.000,4736.9536,N,12223.3506,W,2,9,0.92,-2.4,M,-17.4,M,0000,0000*41
$GPGSA,A,3,15,16,29,25,05,30,18,21,26,,,,1.88,0.92,1.64*0C
$GPGSV,3,1,10,29,73,133,38,21,57,269,43,05,38,054,35,51,33,159,36*71
$GPGSV,3,2,10,30,29,208,38,16,27,311,34,18,26,202,29,26,20,098,35*71
$GPGSV,3,3,10,25,16,190,34,15,16,130,38*7D
$GPRMC,000243.000,A,4736.9536,N,12223.3506,W,3.51,212.97,281010,,,D*71
$GPVTG,212.97,T,,M,3.51,N,6.51,K,D*32
$GPGGA,000244.000,4736.9528,N,12223.3515,W,2,9,0.88,-2.1,M,-17.4,M,0000,0000*45
EPOCH
1288224164
$GPGSV,3,1,10,29,73,133,38,21,57,269,43,05,38,054,35,51,33,159,37*70
$GPGSV,3,2,10,30,29,208,39,16,27,311,35,18,26,202,30,26,20,098,34*78
$GPGSV,3,3,10,25,16,190,34,15,16,130,38*7D
$GPRMC,000244.000,A,4736.9528,N,12223.3515,W,3.97,220.55,281010,,,D*7E
$GPVTG,220.55,T,,M,3.97,N,7.36,K,D*37
$GPGGA,000245.000,4736.9518,N,12223.3529,W,2,9,0.92,-1.9,M,-17.4,M,0000,0000*48
$GPGSA,A,3,15,16,29,25,05,30,18,21,26,,,,1.88,0.92,1.64*0C
$GPGSV,3,1,10,29,73,133,37,21,57,269,43,05,38,054,36,51,33,159,37*7C
$GPGSV,3,2,10,30,29,208,40,16,27,311,36,18,26,202,32,26,20,098,33*70
$GPGSV,3,3,10,25,16,190,27,15,16,130,38*7F
$GPRMC,000245.000,A,4736.9518,N,12223.3529,W,3.81,222.72,281010,,,D*73
$GPVTG,222.72,T,,M,3.81,N,7.05,K,D*37
EPOCH
1288224166
$GPGSA,A,3,15,16,29,25,05,30,18,21,26,,,,1.23,0.88,0.85*08
$GPGSV,3,1,10,29,73,133,35,21,57,269,43,05,38,054,36,51,33,159,37*7E
$GPGSV,3,2,10,30,29,208,39,16,27,311,37,18,26,202,30,26,20,098,32*7C
$GPGSV,3,3,10,25,16,190,29,15,16,130,37*7E
$GPRMC,000246.000,A,4736.9509,N,12223.3539,W,4.00,222.04,281010,,,D*7E
$GPVTG,222.04,T,,M,4.00,N,7.42,K,D*3B
$GPGGA,000247.000,4736.9505,N,12223.3554,W,2,9,0.92,-2.0,M,-17.4,M,0000,0000*46
$GPGSA,A,3,15,16,29,25,05,30,18,21,26,,,,1.88,0.92,1.64*0C
$GPGSV,3,1,10,29,73,133,34,21,57,269,43,05,38,054,36,51,33,159,36*7E
$GPGSV,3,2,10,30,29,208,38,16,27,311,37,18,26,202,31,26,20,098,31*7F
$GPGSV,3,3,10,25,16,190,37,15,16,130,37*71
$GPRMC,000247.000,A,4736.9505,N,12223.3554,W,3.88,224.60,281010,,,D*7B
EPOCH
1288224167
$GPGGA,000248.000,4736.9497,N,12223.3562,W,2,9,0.88,-2.3,M,-17.4,M,0000,0000*4E
$GPGSA,A,3,15,16,29,25,05,30,18,21,26,,,,1.23,0.88,0.85*08
$GPGSV,3,1,10,29,73,133,34,21,57,269,43,05,38,054,37,51,33,159,35*7C
$GPGSV,3,2,10,30,29,208,39,16,27,311,37,18,26,202,32,26,20,098,31*7D
$GPGSV,3,3,10,25,16,190,37,15,16,130,36*70
$GPRMC,000248.000,A,4736.9497,N,12223.3562,W,3.99,219.93,281010,,,D*79
$GPVTG,219.93,T,,M,3.99,N,7.39,K,D*36
$GPGGA,000249.000,4736.9489,N,12223.3576,W,2,9,0.92,-1.7,M,-17.4,M,0000,0000*49
$GPGSA,A,3,15,16,29,25,05,30,18,21,26,,,,1.88,0.92,1.64*0C
$GPGSV,3,1,10,29,73,133,34,21,57,269,43,05,38,054,37,51,33,159,36*7F
$GPGSV,3,2,10,30,29,208,40,16,27,311,36,18,26,202,34,26,20,098,33*76
$GPGSV,3,3,10,25,16,190,38,15,16,130,37*7E
EPOCH
1288224169
$GPVTG,226.76,T,,M,3.81,N,7.06,K,D*34
$GPGGA,000250.000,4736.9482,N,12223.3586,W,2,9,0.88,-1.4,M,-17.4,M,0000,0000*4D
$GPGSA,A,3,15,16,29,25,05,30,18,21,26,,,,1.23,0.88,0.85*08
$GPGSV,3,1,10,29,73,133,35,21,57,269,42,05,38,054,36,51,33,159,36*7E
$GPGSV,3,2,10,30,29,208,40,16,27,311,36,18,26,202,35,26,20,098,33*77
$GPGSV,3,3,10,25,16,190,37,15,16,130,36*70
$GPRMC,000250.000,A,4736.9482,N,12223.3586,W,3.76,225.30,281010,,,D*79
$GPVTG,225.30,T,,M,3.76,N,6.97,K,D*34
$GPGGA,000251.000,4736.9471,N,12223.3597,W,2,9,0.88,-1.1,M,-17.4,M,0000,0000*45
$GPGSA,A,3,15,16,29,25,05,30,18,21,26,,,,1.22,0.88,0.85*09
$GPGSV,3,1,10,29,73,133,34,21,57,269,43,05,38,054,38,51,33,159,37*71
$GPGSV,3,2,10,30,29,208,40,16,27,311,37,18,26,202,35,26,20,098,33*76
EPOCH
1288224171
$GPRMC,000251.000,A,4736.9471,N,12223.3597,W,3.75,221.30,281010,,,D*73
$GPVTG,221.30,T,,M,3.75,N,6.95,K,D*31
$GPGGA,000252.000,4736.9462,N,12223.3609,W,2,9,0.88,-1.1,M,-17.4,M,0000,0000*40
$GPGSA,A,3,15,16,29,25,05,30,18,21,26,,,,1.22,0.88,0.85*09
$GPGSV,3,1,10,29,73,133,35,21,57,269,43,05,38,054,38,51,33,159,36*71
$GPGSV,3,2,10,30,29,208,40,16,27,311,37,18,26,202,34,26,20,098,33*77
$GPGSV,3,3,10,25,16,190,37,15,16,130,35*73
$GPRMC,000252.000,A,4736.9462,N,12223.3609,W,3.82,225.59,281010,,,D*75
$GPVTG,225.59,T,,M,3.82,N,7.07,K,D*38
$GPGGA,000253.000,4736.9454,N,12223.3618,W,2,9,0.88,-0.3,M,-17.4,M,0000,0000*47
$GPGSA,A,3,15,16,29,25,05,30,18,21,26,,,,1.23,0.88,0.85*08
$GPGSV,3,1,10,29,73,133,35,21,57,269,43,05,38,054,39,51,33,159,35*73
EPOCH
1288224173
$GPGSV,3,3,10,25,16,190,37,15,16,130,35*73
$GPRMC,000253.000,A,4736.9454,N,12223.3618,W,3.57,226.17,281010,,,D*70
$GPVTG,226.17,T,,M,3.57,N,6.62,K,D*3B
$GPGGA,000254.000,4736.9445,N,12223.3627,W,2,9,0.88,-0.1,M,-17.4,M,0000,0000*4E
$GPGSA,A,3,15,16,29,25,05,30,18,21,26,,,,1.22,0.88,0.85*09
$GPGSV,3,1,10,29,73,133,34,21,57,269,43,05,38,054,38,51,33,159,34*72
$GPGSV,3,2,10,30,29,208,40,16,27,311,37,18,26,202,33,26,20,098,35*76
$GPGSV,3,3,10,25,16,190,28,15,16,130,35*7D
$GPRMC,000254.000,A,4736.9445,N,12223.3627,W,3.81,218.53,281010,,,D*7D
$GPVTG,218.53,T,,M,3.81,N,7.07,K,D*3F
$GPGGA,000255.000,4736.9435,N,12223.3637,W,2,9,0.88,0.4,M,-17.4,M,0000,0000*61
$GPGSA,A,3,15,16,29,25,05,30,18,21,26,,,,1.22,0.88,0.85*09
EPOCH
1288224175
$GPGSV,3,2,10,30,29,208,40,16,27,311,38,18,26,202,32,26,20,098,34*79
$GPGSV,3,3,10,25,16,190,29,15,16,130,35*7C
$GPRMC,000255.000,A,4736.9435,N,12223.3637,W,3.88,222.69,281010,,,D*73
$GPVTG,222.69,T,,M,3.88,N,7.19,K,D*39
$GPGGA,000256.000,4736.9428,N,12223.3651,W,2,9,0.88,0.6,M,-17.4,M,0000,0000*6C
$GPGSA,A,3,15,16,29,25,05,30,18,21,26,,,,1.23,0.88,0.85*08
$GPGSV,3,1,10,29,73,133,35,21,57,269,44,05,38,054,38,51,33,159,36*76
$GPGSV,3,2,10,30,29,208,39,16,27,311,38,18,26,202,31,26,20,098,34*74
$GPGSV,3,3,10,25,16,190,29,15,16,130,35*7C
$GPRMC,000256.000,A,4736.9428,N,12223.3651,W,3.83,222.39,281010,,,D*72
$GPVTG,222.39,T,,M,3.83,N,7.11,K,D*3F
$GPGGA,000257.000,4736.9422,N,12223.3664,W,2,9,0.88,0.7,M,-17.4,M,0000,0000*60
EPOCH
1288224177
$GPGSV,3,1,10,29,73,133,37,21,57,269,44,05,38,054,27,51,33,159,37*7B
$GPGSV,3,2,10,30,29,208,38,16,27,311,38,18,26,202,31,26,20,098,36*77
$GPGSV,3,3,10,25,16,190,31,15,16,130,36*76
$GPRMC,000257.000,A,4736.9422,N,12223.3664,W,3.65,220.62,281010,,,D*7B
$GPVTG,220.62,T,,M,3.65,N,6.77,K,D*3A
$GPGGA,000258.000,4736.9417,N,12223.3677,W,2,9,0.88,0.3,M,-17.4,M,0000,0000*6F
$GPGSA,A,3,15,16,29,25,05,30,18,21,26,,,,1.23,0.88,0.85*08
$GPGSV,3,1,10,29,73,133,37,21,57,269,44,05,38,054,35,51,33,159,37*78
$GPGSV,3,2,10,30,29,208,37,16,27,311,39,18,26,202,31,26,20,098,37*78
$GPGSV,3,3,10,25,16,190,31,15,16,130,37*77
$GPRMC,000258.000,A,4736.9417,N,12223.3677,W,3.71,221.36,281010,,,D*75
$GPVTG,221.36,T,,M,3.71,N,6.87,K,D*30
EPOCH
1288224179
$GPGSA,A,3,15,16,29,25,05,30,18,21,26,,,,1.23,0.88,0.85*08
$GPGSV,3,1,10,29,73,133,35,21,57,269,43,05,38,054,37,51,33,159,38*70
$GPGSV,3,2,10,30,29,208,38,16,27,311,40,18,26,202,33,26,20,098,38*74
$GPGSV,3,3,10,25,16,190,41,15,16,130,36*71
$GPRMC,000259.000,A,4736.9411,N,12223.3688,W,3.69,222.34,281010,,,D*7A
$GPVTG,222.34,T,,M,3.69,N,6.84,K,D*3B
$GPGGA,000300.000,4736.9406,N,12223.3698,W,2,9,0.88,1.6,M,-17.4,M,0000,0000*66
$GPGSA,A,3,15,16,29,25,05,30,18,21,26,,,,1.23,0.88,0.85*08
$GPGSV,3,1,10,29,73,133,35,21,57,269,42,05,38,054,35,51,33,159,38*73
$GPGSV,3,2,10,30,29,208,38,16,27,311,32,18,26,202,33,26,20,098,36*7F
$GPGSV,3,3,10,25,16,190,42,15,16,130,35*71
$GPRMC,000300.000,A,4736.9406,N,12223.3698,W,3.74,220.26,281010,,,D*7D
EPOCH
1288224180
$GPGGA,000301.000,4736.9397,N,12223.3711,W,2,9,0.88,1.9,M,-17.4,M,0000,0000*67
$GPGSA,A,3,15,16,29,25,05,30,18,21,26,,,,1.23,0.88,0.85*08
$GPGSV,3,1,10,29,73,133,36,21,57,269,44,05,38,054,36,51,33,159,36*7B
$GPGSV,3,2,10,30,29,208,38,16,27,311,32,18,26,202,23,26,20,098,34*7C
$GPGSV,3,3,10,25,16,190,41,15,16,130,34*73
$GPRMC,000301.000,A,4736.9397,N,12223.3711,W,4.07,230.74,281010,,,D*76
$GPVTG,230.74,T,,M,4.07,N,7.54,K,D*3F
$GPGGA,000302.000,4736.9390,N,12223.3723,W,2,9,0.92,2.4,M,-17.4,M,0000,0000*67
$GPGSA,A,3,15,16,29,25,05,30,18,21,26,,,,1.88,0.92,1.64*0C
$GPGSV,3,1,10,29,73,133,36,21,57,269,44,05,38,054,37,51,33,159,34*78
$GPGSV,3,2,10,30,29,208,38,16,27,311,32,18,26,202,30,26,20,098,33*79
$GPGSV,3,3,10,25,16,190,41,15,16,130,33*74
EPOCH
1288224182
$GPVTG,221.51,T,,M,3.90,N,7.22,K,D*30
$GPGGA,000303.000,4736.9382,N,12223.3735,W,2,9,0.92,3.2,M,-17.4,M,0000,0000*65
$GPGSA,A,3,15,16,29,25,05,30,18,21,26,,,,1.88,0.92,1.64*0C
$GPGSV,3,1,10,29,73,133,36,21,57,269,44,05,38,054,36,51,33,159,34*79
$GPGSV,3,2,10,30,29,208,37,16,27,311,32,18,26,202,29,26,20,098,31*7C
$GPGSV,3,3,10,25,16,190,40,15,16,130,32*74
$GPRMC,000303.000,A,4736.9382,N,12223.3735,W,4.61,228.66,281010,,,D*7C
$GPVTG,228.66,T,,M,4.61,N,8.54,K,D*3A
$GPGGA,000304.000,4736.9374,N,12223.3749,W,2,9,0.92,3.6,M,-17.4,M,0000,0000*64
$GPGSA,A,3,15,16,29,25,05,30,18,21,26,,,,1.88,0.92,1.64*0C
$GPGSV,3,1,10,29,73,133,37,21,57,269,44,05,38,054,44,51,33,159,32*7B
$GPGSV,3,2,10,30,29,208,38,16,27,311,30,18,26,202,31,26,20,098,23*7B
EPOCH
1288224184
$GPRMC,000304.000,A,4736.9374,N,12223.3749,W,3.77,219.95,281010,,,D*77
$GPVTG,219.95,T,,M,3.77,N,6.98,K,D*3A
$GPGGA,000305.000,4736.9367,N,12223.3760,W,2,9,0.88,4.3,M,-17.4,M,0000,0000*65
$GPGSA,A,3,15,16,29,25,05,30,18,21,26,,,,1.23,0.88,0.85*08
$GPGSV,3,1,10,29,73,133,38,21,57,269,44,05,38,054,37,51,33,159,32*70
$GPGSV,3,2,10,30,29,208,39,16,27,311,30,18,26,202,30,26,20,098,25*7D
$GPGSV,3,3,10,25,16,190,40,15,16,130,31*77
$GPRMC,000305.000,A,4736.9367,N,12223.3760,W,3.83,224.03,281010,,,D*75
$GPVTG,224.03,T,,M,3.83,N,7.10,K,D*31
$GPGGA,000306.000,4736.9361,N,12223.3773,W,2,9,0.88,4.9,M,-17.4,M,0000,0000*68
$GPGSA,A,3,15,16,29,25,05,30,18,21,26,,,,1.23,0.88,0.85*08
$GPGSV,3,1,10,29,73,133,38,21,57,269,45,05,38,054,39,51,33,159,32*7F
EPOCH
1288224186
$GPGSV,3,3,10,25,16,190,40,15,16,130,30*76
$GPRMC,000306.000,A,4736.9361,N,12223.3773,W,3.78,225.34,281010,,,D*73
$GPVTG,225.34,T,,M,3.78,N,7.00,K,D*31
$GPGGA,000307.000,4736.9355,N,12223.3782,W,2,8,0.96,5.7,M,-17.4,M,0000,0000*61
$GPGSA,A,3,15,16,29,25,05,30,18,21,,,,,1.29,0.96,0.86*0A
$GPGSV,3,1,10,29,73,133,38,21,57,269,45,05,38,054,40,51,33,159,31*72
$GPGSV,3,2,10,30,29,208,38,16,27,311,28,18,26,202,30,26,21,098,23*72
$GPGSV,3,3,10,25,16,190,40,15,16,130,29*7E
$GPRMC,000307.000,A,4736.9355,N,12223.3782,W,3.89,221.54,281010,,,D*77
$GPVTG,221.54,T,,M,3.89,N,7.20,K,D*3F
$GPGGA,000308.000,4736.9350,N,12223.3793,W,2,9,0.92,6.7,M,-17.4,M,0000,0000*6D
$GPGSA,A,3,15,16,29,25,05,30,18,21,26,,,,1.88,0.92,1.64*0C
EPOCH
1288224188
$GPGSV,3,2,10,30,29,208,39,16,27,311,28,18,26,202,30,26,21,098,23*73
$GPGSV,3,3,10,25,16,190,41,15,16,130,30*77
$GPRMC,000308.000,A,4736.9350,N,12223.3793,W,4.07,227.24,281010,,,D*7D
$GPVTG,227.24,T,,M,4.07,N,7.54,K,D*3C
$GPGGA,000309.000,4736.9345,N,12223.3806,W,2,9,0.92,7.3,M,-17.4,M,0000,0000*6E
$GPGSA,A,3,15,16,29,25,05,30,18,21,26,,,,1.88,0.92,1.64*0C
$GPGSV,3,1,10,29,73,133,37,21,57,269,44,05,38,054,37,51,33,159,30*7D
$GPGSV,3,2,10,30,29,208,39,16,27,311,30,18,26,202,31,26,21,098,23*7B
$GPGSV,3,3,10,25,16,190,40,15,16,130,30*76
$GPRMC,000309.000,A,4736.9345,N,12223.3806,W,4.00,226.89,281010,,,D*7A
$GPVTG,226.89,T,,M,4.00,N,7.41,K,D*39
$GPGGA,000310.000,4736.9337,N,12223.3816,W,2,9,0.92,8.0,M,-17.4,M,0000,0000*6E
EPOCH
1288224190
$GPGSV,3,1,10,29,73,133,37,21,57,269,44,05,38,054,30,51,33,159,29*72
$GPGSV,3,2,10,30,29,208,40,16,27,311,31,18,26,202,31,26,21,098,24*73
$GPGSV,3,3,10,25,16,190,40,15,16,130,30*76
$GPRMC,000310.000,A,4736.9337,N,12223.3816,W,4.21,228.46,281010,,,D*78
$GPVTG,228.46,T,,M,4.21,N,7.80,K,D*3A
$GPGGA,000311.000,4736.9329,N,12223.3830,W,2,9,0.92,8.8,M,-17.4,M,0000,0000*6C
$GPGSA,A,3,15,16,29,25,05,30,18,21,26,,,,1.88,0.92,1.64*0C
$GPGSV,3,1,10,29,73,133,37,21,57,269,43,05,38,054,29,51,33,159,29*7D
$GPGSV,3,2,10,30,29,208,40,16,27,311,31,18,26,202,33,26,21,098,25*70
$GPGSV,3,3,10,25,16,190,40,15,16,130,30*76
$GPRMC,000311.000,A,4736.9329,N,12223.3830,W,3.67,229.78,281010,,,D*7B
$GPVTG,229.78,T,,M,3.67,N,6.80,K,D*32
EPOCH
1288224192
$GPGSA,A,3,15,16,29,25,05,30,18,21,26,,,,1.23,0.88,0.85*08
$GPGSV,3,1,10,29,73,133,37,21,57,269,43,05,38,054,42,51,33,159,28*71
$GPGSV,3,2,10,30,29,208,39,16,27,311,32,18,26,202,33,26,21,098,33*7A
$GPGSV,3,3,10,25,16,190,41,15,16,130,32*75
$GPRMC,000312.000,A,4736.9324,N,12223.3849,W,4.27,229.37,281010,,,D*73
$GPVTG,229.37,T,,M,4.27,N,7.91,K,D*3B
$GPGGA,000313.000,4736.9319,N,12223.3862,W,2,9,0.92,8.8,M,-17.4,M,0000,0000*6A
$GPGSA,A,3,15,16,29,25,05,30,18,21,26,,,,1.88,0.92,1.64*0C
$GPGSV,3,1,10,29,73,133,38,21,57,269,43,05,38,054,34,51,33,159,29*7E
$GPGSV,3,2,10,30,29,208,38,16,27,311,41,18,26,202,33,26,21,098,33*7F
$GPGSV,3,3,10,25,16,190,41,15,16,130,34*73
$GPRMC,000313.000,A,4736.9319,N,12223.3862,W,4.28,232.45,281010,,,D*75
EPOCH
1288224193
$GPGGA,000314.000,4736.9315,N,12223.3881,W,2,9,0.92,8.9,M,-17.4,M,0000,0000*6D
$GPGSA,A,3,15,16,29,25,05,30,18,21,26,,,,1.88,0.92,1.64*0C
$GPGSV,3,1,10,29,73,133,37,21,57,269,42,05,38,054,33,51,33,159,30*7F
$GPGSV,3,2,10,30,29,208,38,16,27,311,41,18,26,202,33,26,21,098,34*78
$GPGSV,3,3,10,25,16,190,41,15,16,130,34*73
$GPRMC,000314.000,A,4736.9315,N,12223.3881,W,3.82,237.68,281010,,,D*7E
$GPVTG,237.68,T,,M,3.82,N,7.07,K,D*39
$GPGGA,000315.000,4736.9312,N,12223.3892,W,2,9,0.88,8.5,M,-17.4,M,0000,0000*6E
$GPGSA,A,3,15,16,29,25,05,30,18,21,26,,,,1.23,0.88,0.85*08
$GPGSV,3,1,10,29,73,133,37,21,57,269,43,05,38,054,41,51,33,159,29*73
$GPGSV,3,2,10,30,29,208,39,16,27,311,40,18,26,202,32,26,21,098,35*78
$GPGSV,3,3,10,25,16,190,41,15,16,130,35*72
EPOCH
1288224195
$GPVTG,230.82,T,,M,3.66,N,6.79,K,D*38
$GPGGA,000316.000,4736.9303,N,12223.3908,W,2,9,0.88,9.3,M,-17.4,M,0000,0000*68
$GPGSA,A,3,15,16,29,25,05,30,18,21,26,,,,1.23,0.88,0.85*08
$GPGSV,3,1,10,29,73,133,37,21,57,269,43,05,38,054,40,51,33,159,29*72
$GPGSV,3,2,10,30,29,208,39,16,27,311,30,18,26,202,32,26,21,098,36*7C
$GPGSV,3,3,10,25,16,190,41,15,16,130,35*72
$GPRMC,000316.000,A,4736.9303,N,12223.3908,W,3.95,232.08,281010,,,D*7E
$GPVTG,232.08,T,,M,3.95,N,7.32,K,D*3A
$GPGGA,000317.000,4736.9294,N,12223.3925,W,2,9,0.92,9.5,M,-17.4,M,0000,0000*64
$GPGSA,A,3,15,16,29,25,05,30,18,21,26,,,,1.88,0.92,1.64*0C
$GPGSV,3,1,10,29,73,133,37,21,57,269,42,05,38,054,40,51,33,159,28*72
$GPGSV,3,2,10,30,29,208,40,16,27,311,31,18,26,202,25,26,21,098,36*75
EPOCH
1288224197
$GPRMC,000317.000,A,4736.9294,N,12223.3925,W,3.87,231.23,281010,,,D*76
$GPVTG,231.23,T,,M,3.87,N,7.17,K,D*34
$GPGGA,000318.000,4736.9290,N,12223.3939,W,2,9,0.88,9.0,M,-17.4,M,0000,0000*6C
$GPGSA,A,3,15,16,29,25,05,30,18,21,26,,,,1.23,0.88,0.85*08
$GPGSV,3,1,11,29,73,133,36,21,57,269,42,05,38,054,39,51,33,159,28*7C
$GPGSV,3,2,11,30,29,208,40,16,27,311,38,18,26,202,35,26,21,098,36*7C
$GPGSV,3,3,11,25,16,190,40,15,16,130,35,06,01,307,*41
$GPRMC,000318.000,A,4736.9290,N,12223.3939,W,3.88,234.47,281010,,,D*78
$GPVTG,234.47,T,,M,3.88,N,7.19,K,D*32
$GPGGA,000319.000,4736.9284,N,12223.3950,W,2,9,0.88,8.8,M,-17.4,M,0000,0000*6E
$GPGSA,A,3,15,16,29,25,05,30,18,21,26,,,,1.23,0.88,0.85*08
$GPGSV,3,1,11,29,73,133,37,21,57,269,42,05,38,054,39,51,33,159,28*7D
EPOCH
1288224199
$GPGSV,3,3,11,25,16,190,40,15,16,130,36,06,01,307,30*41
$GPRMC,000319.000,A,4736.9284,N,12223.3950,W,3.66,232.29,281010,,,D*7D
$GPVTG,232.29,T,,M,3.66,N,6.79,K,D*3B
$GPGSA,A,3,15,16,29,25,05,30,18,21,26,,,,1.23,0.88,0.85*08
$GPGSV,3,1,11,29,73,133,36,21,57,269,42,05,38,054,38,51,33,159,29*7C
$GPGSV,3,2,11,30,29,208,40,16,27,311,36,18,26,202,41,26,21,098,37*70
$GPGSV,3,3,11,25,16,190,39,15,16,130,36,06,01,307,32*4D
$GPRMC,000320.000,A,4736.9282,N,12223.3964,W,3.64,234.75,281010,,,D*7B
$GPVTG,234.75,T,,M,3.64,N,6.74,K,D*3B
$GPGGA,000321.000,4736.9277,N,12223.3976,W,2,9,0.88,9.4,M,-17.4,M,0000,0000*60
$GPGSA,A,3,15,16,29,25,05,30,18,21,26,,,,1.23,0.88,0.85*08
$GPGSV,3,1,11,29,73,133,37,21,57,269,43,05,38,054,37,51,33,159,28*72
EPOCH
1288224201
$GPGSV,3,3,11,25,16,190,40,15,16,130,37,06,01,307,32*42
$GPRMC,000321.000,A,4736.9277,N,12223.3976,W,3.79,230.14,281010,,,D*7C
$GPVTG,230.14,T,,M,3.79,N,7.02,K,D*34
$GPGGA,000322.000,4736.9272,N,12223.3991,W,2,9,0.88,9.3,M,-17.4,M,0000,0000*68
$GPGSA,A,3,15,16,29,25,05,30,18,21,26,,,,1.23,0.88,0.85*08
$GPGSV,3,1,11,29,73,133,38,21,57,269,44,05,38,054,39,51,33,159,29*75
$GPGSV,3,2,11,30,29,208,42,16,27,311,35,18,26,202,32,26,21,098,37*75
$GPGSV,3,3,11,25,16,190,41,15,16,130,36,06,01,307,31*41
$GPRMC,000322.000,A,4736.9272,N,12223.3991,W,3.81,233.29,281010,,,D*79
$GPVTG,233.29,T,,M,3.81,N,7.06,K,D*3A
$GPGGA,000323.000,4736.9265,N,12223.4004,W,2,9,0.88,9.8,M,-17.4,M,0000,0000*66
$GPGSA,A,3,15,16,29,25,05,30,18,21,26,,,,1.23,0.88,0.85*08
EPOCH
1288224203
$GPGSV,3,2,11,30,29,208,42,16,27,311,34,18,26,202,34,26,21,098,37*72
$GPGSV,3,3,11,25,16,190,41,15,16,130,36,06,01,307,33*43
$GPRMC,000323.000,A,4736.9265,N,12223.4004,W,3.95,228.99,281010,,,D*78
$GPVTG,228.99,T,,M,3.95,N,7.32,K,D*39
$GPGGA,000324.000,4736.9259,N,12223.4017,W,2,9,0.92,10.0,M,-17.4,M,0000,0000*57
$GPGSA,A,3,15,16,29,25,05,30,18,21,26,,,,1.88,0.92,1.64*0C
$GPGSV,3,1,11,29,73,133,37,21,57,269,44,05,38,054,39,51,33,159,29*7A
$GPGSV,3,2,11,30,29,208,40,16,27,311,33,18,26,202,33,26,21,098,38*7F
$GPGSV,3,3,11,25,16,190,41,15,16,130,36,06,01,307,33*43
$GPRMC,000324.000,A,4736.9259,N,12223.4017,W,4.11,234.47,281010,,,D*77
$GPVTG,234.47,T,,M,4.11,N,7.61,K,D*3A
$GPGGA,000325.000,4736.9253,N,12223.4037,W,2,9,0.92,9.8,M,-17.4,M,0000,0000*6E
EPOCH
1288224205
$GPGSV,3,1,11,29,73,133,37,21,57,269,43,05,38,054,40,51,33,159,28*72
$GPGSV,3,2,11,30,29,208,41,16,27,311,42,18,26,202,33,26,21,098,38*78
$GPGSV,3,3,11,25,16,190,41,15,16,130,35,06,01,307,33*40
$GPRMC,000325.000,A,4736.9253,N,12223.4037,W,3.71,238.68,281010,,,D*7E
$GPVTG,238.68,T,,M,3.71,N,6.88,K,D*3C
$GPGGA,000326.000,4736.9248,N,12223.4048,W,2,9,0.88,9.8,M,-17.4,M,0000,0000*64
$GPGSA,A,3,15,16,29,25,05,30,18,21,26,,,,1.23,0.88,0.85*08
$GPGSV,3,1,11,29,73,133,37,21,57,269,43,05,38,054,39,51,33,159,30*75
$GPGSV,3,2,11,30,29,208,39,16,27,311,41,18,26,202,32,26,21,098,38*75
$GPGSV,3,3,11,25,16,190,41,15,16,130,34,06,01,307,33*41
$GPRMC,000326.000,A,4736.9248,N,12223.4048,W,3.60,237.87,281010,,,D*71
$GPVTG,237.87,T,,M,3.60,N,6.66,K,D*32
EPOCH
1288224207
$GPGSA,A,3,15,16,29,25,05,30,18,21,26,,,,1.23,0.88,0.85*08
$GPGSV,3,1,11,29,73,133,37,21,57,269,43,05,38,054,41,51,33,159,32*78
$GPGSV,3,2,11,30,29,208,38,16,27,311,41,18,26,202,30,26,21,098,38*76
$GPGSV,3,3,11,25,16,190,41,15,16,130,34,06,01,307,33*41
$GPRMC,000327.000,A,4736.9244,N,12223.4064,W,3.83,239.79,281010,,,D*70
$GPVTG,239.79,T,,M,3.83,N,7.10,K,D*30
$GPGGA,000328.000,4736.9240,N,12223.4078,W,2,9,0.88,9.5,M,-17.4,M,0000,0000*6C
$GPGSA,A,3,15,16,29,25,05,30,18,21,26,,,,1.23,0.88,0.85*08
$GPGSV,3,1,11,29,73,133,37,21,57,269,43,05,38,054,39,51,33,159,32*77
$GPGSV,3,2,11,30,29,208,38,16,27,311,41,18,26,202,30,26,21,098,37*79
$GPGSV,3,3,11,25,16,190,41,15,16,130,35,06,01,307,33*40
$GPRMC,000328.000,A,4736.9240,N,12223.4078,W,3.67,237.02,281010,,,D*7E
EPOCH
1288224208
$GPGGA,000329.000,4736.9234,N,12223.4095,W,2,9,0.88,9.4,M,-17.4,M,0000,0000*6C
$GPGSA,A,3,15,16,29,25,05,30,18,21,26,,,,1.23,0.88,0.85*08
$GPGSV,3,1,11,29,73,133,37,21,57,269,43,05,38,054,40,51,33,159,31*7A
$GPGSV,3,2,11,30,29,208,37,16,27,311,40,18,26,202,31,26,21,098,38*79
$GPGSV,3,3,11,25,16,190,41,15,16,130,35,06,01,307,32*41
$GPRMC,000329.000,A,4736.9234,N,12223.4095,W,3.69,237.70,281010,,,D*74
$GPVTG,237.70,T,,M,3.69,N,6.84,K,D*3F
$GPGGA,000330.000,4736.9228,N,12223.4107,W,2,9,0.88,9.5,M,-17.4,M,0000,0000*62
$GPGSA,A,3,15,16,29,25,05,30,18,21,26,,,,1.23,0.88,0.85*08
$GPGSV,3,1,11,29,73,133,37,21,57,269,44,05,38,054,41,51,33,159,31*7C
$GPGSV,3,2,11,30,29,208,38,16,27,311,33,18,26,202,31,26,21,098,39*73
$GPGSV,3,3,11,25,16,190,41,15,16,130,35,06,01,307,31*42
EPOCH
1288224210
$GPVTG,233.40,T,,M,3.60,N,6.67,K,D*3C
$GPGGA,000331.000,4736.9222,N,12223.4119,W,2,9,0.88,9.9,M,-17.4,M,0000,0000*6A
$GPGSA,A,3,15,16,29,25,05,30,18,21,26,,,,1.23,0.88,0.85*08
$GPGSV,3,1,11,29,73,133,38,21,57,269,44,05,38,054,40,51,33,159,31*72
$GPGSV,3,2,11,30,29,208,40,16,27,311,31,18,26,202,33,26,21,098,39*7C
$GPGSV,3,3,11,25,16,190,41,15,16,130,35,06,01,307,30*43
$GPRMC,000331.000,A,4736.9222,N,12223.4119,W,3.49,229.40,281010,,,D*71
$GPVTG,229.40,T,,M,3.49,N,6.47,K,D*3E
$GPGGA,000332.000,4736.9219,N,12223.4135,W,2,9,0.88,10.2,M,-17.4,M,0000,0000*5C
$GPGSA,A,3,15,16,29,25,05,30,18,21,26,,,,1.23,0.88,0.85*08
$GPGSV,3,1,11,29,73,133,37,21,57,269,44,05,38,054,33,51,33,159,30*78
$GPGSV,3,2,11,30,29,208,40,16,27,311,38,18,26,202,35,26,21,098,38*72
EPOCH
1288224212
$GPRMC,000332.000,A,4736.9219,N,12223.4135,W,3.78,236.96,281010,,,D*73
$GPVTG,236.96,T,,M,3.78,N,7.00,K,D*3B
$GPGGA,000333.000,4736.9216,N,12223.4150,W,2,9,0.88,9.6,M,-17.4,M,0000,0000*6D
$GPGSA,A,3,15,16,29,25,05,30,18,21,26,,,,1.23,0.88,0.85*08
$GPGSV,3,1,11,29,73,133,37,21,57,269,44,05,38,054,43,51,33,159,31*7E
$GPGSV,3,2,11,30,29,208,39,16,27,311,38,18,26,202,34,26,21,098,37*72
$GPGSV,3,3,11,25,16,190,40,15,16,130,35,06,01,307,29*4A
$GPRMC,000333.000,A,4736.9216,N,12223.4150,W,4.01,232.28,281010,,,D*76
$GPVTG,232.28,T,,M,4.01,N,7.43,K,D*34
$GPGGA,000334.000,4736.9214,N,12223.4166,W,2,9,0.92,9.2,M,-17.4,M,0000,0000*62
$GPGSA,A,3,15,16,29,25,05,30,18,21,26,,,,1.89,0.92,1.65*0C
$GPGSV,3,1,11,29,73,133,37,21,57,269,43,05,38,054,43,51,33,159,33*7B
EPOCH
1288224214
$GPGSV,3,3,11,25,16,190,40,15,16,130,28,06,01,307,29*46
$GPRMC,000334.000,A,4736.9214,N,12223.4166,W,3.50,236.11,281010,,,D*7B
$GPVTG,236.11,T,,M,3.50,N,6.49,K,D*32
$GPGGA,000335.000,4736.9208,N,12223.4179,W,2,9,0.88,9.4,M,-17.4,M,0000,0000*6D
$GPGSA,A,3,15,16,29,25,05,30,18,21,26,,,,1.23,0.88,0.85*08
$GPGSV,3,1,11,29,73,133,37,21,57,269,43,05,38,054,34,51,33,159,32*7A
$GPGSV,3,2,11,30,29,208,40,16,27,311,37,18,26,202,35,26,21,098,38*7D
$GPGSV,3,3,11,25,16,190,41,15,16,130,36,06,01,307,29*48
$GPRMC,000335.000,A,4736.9208,N,12223.4179,W,3.41,232.58,281010,,,D*70
$GPVTG,232.58,T,,M,3.41,N,6.33,K,D*36
$GPGGA,000336.000,4736.9203,N,12223.4189,W,2,9,0.88,9.9,M,-17.4,M,0000,0000*67
$GPGSA,A,3,15,16,29,25,05,30,18,21,26,,,,1.23,0.88,0.85*08
EPOCH
1288224216
$GPGSV,3,2,11,30,29,208,40,16,27,311,39,18,26,202,35,26,21,098,38*73
$GPGSV,3,3,11,25,16,190,40,15,16,130,36,06,01,307,29*49
$GPRMC,000336.000,A,4736.9203,N,12223.4189,W,3.78,238.19,281010,,,D*72
$GPVTG,238.19,T,,M,3.78,N,7.00,K,D*32
$GPGGA,000337.000,4736.9198,N,12223.4203,W,2,9,0.88,9.8,M,-17.4,M,0000,0000*67
$GPGSA,A,3,15,16,29,25,05,30,18,21,26,,,,1.23,0.88,0.85*08
$GPGSV,3,1,11,29,73,133,37,21,57,269,44,05,38,054,36,51,33,159,30*7D
$GPGSV,3,2,11,30,29,208,40,16,27,311,38,18,26,202,35,26,21,098,36*7C
$GPGSV,3,3,11,25,16,190,41,15,16,130,27,06,01,307,30*40
$GPRMC,000337.000,A,4736.9198,N,12223.4203,W,3.79,232.50,281010,,,D*75
$GPVTG,232.50,T,,M,3.79,N,7.02,K,D*36
$GPGSA,A,3,15,16,29,25,05,30,18,21,26,,,,1.23,0.88,0.85*08
EPOCH
1288224218
$GPGSV,3,2,11,30,29,208,41,16,27,311,37,18,26,202,35,26,21,098,34*70
$GPGSV,3,3,11,25,16,190,41,15,16,130,35,06,01,307,29*4B
$GPRMC,000338.000,A,4736.9193,N,12223.4216,W,3.94,234.74,281010,,,D*76
$GPVTG,234.74,T,,M,3.94,N,7.31,K,D*35
$GPGGA,000339.000,4736.9188,N,12223.4228,W,2,8,0.99,10.1,M,-17.4,M,0000,0000*51
$GPGSA,A,3,15,16,29,25,05,30,18,21,,,,,1.96,0.99,1.69*01
$GPGSV,3,1,11,29,73,133,38,21,57,269,44,05,38,054,38,51,33,159,32*7E
$GPGSV,3,2,11,30,29,208,42,16,27,311,30,18,26,202,27,26,21,098,23*71
$GPGSV,3,3,11,25,16,190,41,15,16,130,34,06,01,307,28*4B
$GPRMC,000339.000,A,4736.9188,N,12223.4228,W,4.04,231.23,281010,,,D*79
$GPVTG,231.23,T,,M,4.04,N,7.49,K,D*33
$GPGGA,000340.000,4736.9180,N,12223.4241,W,2,8,0.99,10.4,M,-17.4,M,0000,0000*5D
EPOCH
1288224220
$GPGSV,3,1,11,29,73,133,38,21,57,269,45,05,38,054,39,51,33,159,32*7E
$GPGSV,3,2,11,30,29,208,40,16,27,311,30,18,26,202,29,26,21,098,21*7F
$GPGSV,3,3,11,25,16,190,40,15,16,130,32,06,01,307,28*4C
$GPRMC,000340.000,A,4736.9180,N,12223.4241,W,3.97,224.53,281010,,,D*7E
$GPVTG,224.53,T,,M,3.97,N,7.35,K,D*36
$GPGGA,000341.000,4736.9173,N,12223.4254,W,2,9,0.92,10.7,M,-17.4,M,0000,0000*5D
$GPGSA,A,3,15,16,29,25,05,30,18,21,26,,,,1.89,0.92,1.65*0C
$GPGSV,3,1,11,29,73,133,37,21,57,269,44,05,38,054,39,51,33,159,39*7B
$GPGSV,3,2,11,30,29,208,40,16,27,311,32,18,26,202,30,26,21,098,23*77
$GPGSV,3,3,11,25,16,190,41,15,16,130,31,06,01,307,21*47
$GPRMC,000341.000,A,4736.9173,N,12223.4254,W,4.02,228.78,281010,,,D*79
$GPVTG,228.78,T,,M,4.02,N,7.44,K,D*3E
EPOCH
1288224222
$GPGSA,A,3,15,16,29,25,05,30,18,21,26,,,,1.89,0.92,1.65*0C
$GPGSV,3,1,11,29,73,133,37,21,57,269,44,05,38,054,40,51,33,159,27*7A
$GPGSV,3,2,11,30,29,208,39,16,27,311,32,18,26,202,28,26,21,098,25*76
$GPGSV,3,3,11,25,16,190,41,15,16,130,31,06,01,307,23*45
$GPRMC,000342.000,A,4736.9166,N,12223.4266,W,3.79,224.96,281010,,,D*78
$GPVTG,224.96,T,,M,3.79,N,7.02,K,D*3B
$GPGGA,000343.000,4736.9165,N,12223.4289,W,2,9,0.88,9.4,M,-17.4,M,0000,0000*68
$GPGSA,A,3,15,16,29,25,05,30,18,21,26,,,,1.23,0.88,0.85*08
$GPGSV,3,1,11,29,73,133,36,21,57,269,44,05,38,054,39,51,33,159,29*7B
$GPGSV,3,2,11,30,29,208,39,16,27,311,39,18,26,202,29,26,21,098,25*7C
$GPGSV,3,3,11,25,16,190,42,15,16,130,38,06,01,307,24*48
$GPRMC,000343.000,A,4736.9165,N,12223.4289,W,4.30,231.88,281010,,,D*7A
EPOCH
1288224223
$GPGGA,000344.000,4736.9157,N,12223.4302,W,2,9,0.92,9.2,M,-17.4,M,0000,0000*61
$GPGSA,A,3,15,16,29,25,05,30,18,21,26,,,,1.88,0.92,1.64*0C
$GPGSV,3,1,11,29,73,133,37,21,57,269,44,05,38,054,40,51,33,159,31*7D
$GPGSV,3,2,11,30,29,208,39,16,27,311,39,18,26,202,29,26,21,098,25*7C
$GPGSV,3,3,11,25,16,190,43,15,16,130,37,06,01,307,26*44
$GPRMC,000344.000,A,4736.9157,N,12223.4302,W,4.48,229.47,281010,,,D*7B
$GPVTG,229.47,T,,M,4.48,N,8.30,K,D*31
$GPGGA,000345.000,4736.9152,N,12223.4318,W,2,9,0.92,8.8,M,-17.4,M,0000,0000*65
$GPGSA,A,3,15,16,29,25,05,30,18,21,26,,,,1.88,0.92,1.65*0D
$GPGSV,3,1,11,29,73,133,37,21,57,269,45,05,38,054,33,51,33,159,39*70
$GPGSV,3,2,11,30,29,208,38,16,27,311,39,18,26,202,30,26,21,098,35*74
$GPGSV,3,3,11,25,16,190,43,15,16,130,36,06,01,307,27*44
EPOCH
1288224225
$GPVTG,229.94,T,,M,3.77,N,6.99,K,D*39
$GPGGA,000346.000,4736.9145,N,12223.4328,W,2,9,0.88,8.3,M,-17.4,M,0000,0000*63
$GPGSA,A,3,15,16,29,25,05,30,18,21,26,,,,1.23,0.88,0.85*08
$GPGSV,3,1,11,29,73,133,38,21,57,269,45,05,38,054,35,51,33,159,32*72
$GPGSV,3,2,11,30,29,208,39,16,27,311,39,18,26,202,32,26,21,098,33*71
$GPGSV,3,3,11,25,16,190,43,15,16,130,37,06,01,307,28*4A
$GPRMC,000346.000,A,4736.9145,N,12223.4328,W,4.20,226.22,281010,,,D*70
$GPVTG,226.22,T,,M,4.20,N,7.79,K,D*31
$GPGGA,000347.000,4736.9139,N,12223.4347,W,2,9,0.92,8.1,M,-17.4,M,0000,0000*69
$GPGSA,A,3,15,16,29,25,05,30,18,21,26,,,,1.89,0.92,1.65*0C
$GPGSV,3,1,11,29,73,133,38,21,57,269,44,05,38,054,36,51,33,159,30*72
$GPGSV,3,2,11,30,29,208,38,16,27,311,38,18,26,202,31,26,21,098,21*71
EPOCH
1288224227
$GPRMC,000347.000,A,4736.9139,N,12223.4347,W,4.11,228.62,281010,,,D*7B
$GPVTG,228.62,T,,M,4.11,N,7.61,K,D*30
$GPGGA,000348.000,4736.9132,N,12223.4358,W,2,9,0.92,8.4,M,-17.4,M,0000,0000*66
$GPGSA,A,3,15,16,29,25,05,30,18,21,26,,,,1.88,0.92,1.64*0C
$GPGSV,3,1,11,29,73,133,38,21,57,269,44,05,38,054,37,51,33,159,31*72
$GPGSV,3,2,11,30,29,208,38,16,27,311,36,18,26,202,30,26,21,098,21*7E
$GPGSV,3,3,11,25,16,190,43,15,16,130,37,06,01,307,29*4B
$GPRMC,000348.000,A,4736.9132,N,12223.4358,W,3.84,224.84,281010,,,D*7E
$GPVTG,224.84,T,,M,3.84,N,7.12,K,D*3B
$GPGGA,000349.000,4736.9127,N,12223.4374,W,2,9,0.88,7.2,M,-17.4,M,0000,0000*6F
$GPGSA,A,3,15,16,29,25,05,30,18,21,26,,,,1.23,0.88,0.85*08
$GPGSV,3,1,11,29,73,133,39,21,57,269,45,05,37,054,37,51,33,159,32*7E
EPOCH
1288224229
$GPGSV,3,3,11,25,16,190,43,15,16,130,37,06,01,307,30*43
$GPRMC,000349.000,A,4736.9127,N,12223.4374,W,4.01,230.42,281010,,,D*70
$GPVTG,230.42,T,,M,4.01,N,7.44,K,D*3D
$GPGGA,000350.000,4736.9120,N,12223.4388,W,2,9,0.92,6.8,M,-17.4,M,0000,0000*63
$GPGSA,A,3,15,16,29,25,05,30,18,21,26,,,,1.89,0.92,1.65*0C
$GPGSV,3,1,11,29,73,133,38,21,57,269,45,05,37,054,38,51,33,159,33*71
$GPGSV,3,2,11,30,29,208,40,16,27,311,36,18,26,202,32,26,21,098,36*75
$GPGSV,3,3,11,25,16,190,44,15,16,130,38,06,01,307,31*4A
$GPRMC,000350.000,A,4736.9120,N,12223.4388,W,4.16,227.90,281010,,,D*73
$GPVTG,227.90,T,,M,4.16,N,7.70,K,D*35
$GPGGA,000351.000,4736.9115,N,12223.4401,W,2,9,0.92,5.9,M,-17.4,M,0000,0000*60
$GPGSA,A,3,15,16,29,25,05,30,18,21,26,,,,1.89,0.92,1.65*0C
EPOCH
1288224231
$GPGSV,3,2,11,30,29,208,40,16,27,311,37,18,26,202,32,26,21,098,36*74
$GPGSV,3,3,11,25,16,190,43,15,16,130,37,06,01,307,30*43
$GPRMC,000351.000,A,4736.9115,N,12223.4401,W,4.29,234.53,281010,,,D*73
$GPVTG,234.53,T,,M,4.29,N,7.95,K,D*3F
$GPGGA,000352.000,4736.9107,N,12223.4412,W,2,9,0.92,5.9,M,-17.4,M,0000,0000*62
$GPGSA,A,3,15,16,29,25,05,30,18,21,26,,,,1.88,0.92,1.65*0D
$GPGSV,3,1,11,29,73,133,28,21,57,269,46,05,37,054,40,51,33,159,35*7A
$GPGSV,3,2,11,30,29,208,39,16,27,311,36,18,26,202,31,26,21,098,35*7B
$GPGSV,3,3,11,25,16,190,43,15,16,130,36,06,01,307,29*4A
$GPRMC,000352.000,A,4736.9107,N,12223.4412,W,3.88,231.74,281010,,,D*7D
$GPVTG,231.74,T,,M,3.88,N,7.19,K,D*37
$GPGGA,000353.000,4736.9100,N,12223.4427,W,2,9,0.88,6.0,M,-17.4,M,0000,0000*63
EPOCH
1288224233
$GPGSV,3,1,11,29,73,133,30,21,57,269,46,05,37,054,41,51,33,159,36*71
$GPGSV,3,2,11,30,29,208,40,16,27,311,36,18,26,202,23,26,21,098,34*77
$GPGSV,3,3,11,25,16,190,43,15,16,130,29,06,01,307,22*4F
$GPRMC,000353.000,A,4736.9100,N,12223.4427,W,3.97,229.00,281010,,,D*79
$GPVTG,229.00,T,,M,3.97,N,7.36,K,D*3E
$GPGGA,000354.000,4736.9094,N,12223.4441,W,2,9,0.92,6.0,M,-17.4,M,0000,0000*63
$GPGSA,A,3,15,16,29,25,05,30,18,21,26,,,,1.89,0.92,1.65*0C
$GPGSV,3,1,11,29,73,133,37,21,57,269,39,05,37,054,40,51,33,159,27*7F
$GPGSV,3,2,11,30,29,208,41,16,27,311,35,18,26,202,32,26,21,098,32*73
$GPGSV,3,3,11,25,16,190,42,15,16,130,28,06,01,307,29*44
$GPRMC,000354.000,A,4736.9094,N,12223.4441,W,4.12,233.99,281010,,,D*73
$GPVTG,233.99,T,,M,4.12,N,7.64,K,D*38
EPOCH
1288224235
$GPGSA,A,3,15,16,29,25,05,30,18,21,26,,,,1.89,0.92,1.65*0C
$GPGSV,3,1,11,29,73,133,36,21,57,269,41,05,37,054,38,51,33,159,38*70
$GPGSV,3,2,11,30,29,208,42,16,27,311,34,18,26,202,33,26,21,098,24*77
$GPGSV,3,3,11,25,16,190,42,15,16,130,29,06,01,307,29*45
$GPRMC,000355.000,A,4736.9087,N,12223.4454,W,4.33,236.38,281010,,,D*79
$GPVTG,236.38,T,,M,4.33,N,8.03,K,D*3B
$GPGGA,000356.000,4736.9084,N,12223.4470,W,2,8,0.97,5.8,M,-17.4,M,0000,0000*6D
$GPGSA,A,3,16,29,25,05,30,18,21,26,,,,,1.95,0.97,1.70*04
$GPGSV,3,1,11,29,73,133,35,21,57,269,43,05,37,054,37,51,33,159,30*76
$GPGSV,3,2,11,30,29,208,40,16,27,311,35,18,26,202,31,26,21,098,25*77
$GPGSV,3,3,11,25,16,190,42,15,16,130,,06,01,307,29*4E
$GPRMC,000356.000,A,4736.9084,N,12223.4470,W,4.51,236.39,281010,,,D*7A
EPOCH
1288224236
$GPGGA,000357.000,4736.9077,N,12223.4491,W,2,9,0.92,5.2,M,-17.4,M,0000,0000*61
$GPGSA,A,3,15,16,29,25,05,30,18,21,26,,,,1.89,0.92,1.65*0C
$GPGSV,3,1,11,29,73,133,42,21,57,269,44,05,37,054,39,51,33,159,*7C
$GPGSV,3,2,11,30,29,208,41,16,27,311,36,18,26,202,31,26,21,098,26*76
$GPGSV,3,3,11,25,16,190,41,15,16,130,27,06,01,307,37*47
$GPRMC,000357.000,A,4736.9077,N,12223.4491,W,4.32,238.29,281010,,,D*72
$GPVTG,238.29,T,,M,4.32,N,8.00,K,D*37
$GPGGA,000358.000,4736.9072,N,12223.4508,W,2,9,0.92,4.2,M,-17.4,M,0000,0000*6B
$GPGSA,A,3,15,16,29,25,05,30,18,21,26,,,,1.89,0.92,1.65*0C
$GPGSV,3,1,11,29,73,133,42,21,57,269,44,05,37,054,38,51,33,159,34*7A
$GPGSV,3,2,11,30,29,208,41,16,27,311,38,18,26,202,30,26,21,098,33*7D
$GPGSV,3,3,11,25,16,190,40,15,16,130,33,06,01,307,37*43
EPOCH
1288224238
$GPVTG,238.35,T,,M,4.61,N,8.55,K,D*3C
$GPGGA,000359.000,4736.9067,N,12223.4526,W,2,9,0.92,3.3,M,-17.4,M,0000,0000*64
$GPGSA,A,3,15,16,29,25,05,30,18,21,26,,,,1.89,0.92,1.65*0C
$GPGSV,3,1,11,29,73,133,43,21,57,269,43,05,37,054,39,51,33,159,34*7D
$GPGSV,3,2,11,30,29,208,41,16,27,311,46,18,26,202,29,26,21,098,34*7B
$GPGSV,3,3,11,25,16,190,39,15,16,130,37,06,01,307,37*49
$GPRMC,000359.000,A,4736.9067,N,12223.4526,W,4.22,242.01,281010,,,D*76
$GPVTG,242.01,T,,M,4.22,N,7.82,K,D*34
$GPGGA,000400.000,4736.9062,N,12223.4546,W,2,9,0.92,2.5,M,-17.4,M,0000,0000*6B
$GPGSA,A,3,15,16,29,25,05,30,18,21,26,,,,1.88,0.92,1.65*0D
$GPGSV,3,1,11,29,73,133,43,21,57,269,44,05,37,054,41,51,33,159,37*76
$GPGSV,3,2,11,30,29,208,41,16,27,311,39,18,26,202,29,26,21,098,34*73
EPOCH
1288224240
$GPRMC,000400.000,A,4736.9062,N,12223.4546,W,4.08,238.78,281010,,,D*75
$GPVTG,238.78,T,,M,4.08,N,7.57,K,D*37
$GPGGA,000401.000,4736.9056,N,12223.4559,W,2,9,0.92,2.1,M,-17.4,M,0000,0000*67
$GPGSA,A,3,15,16,29,25,05,30,18,21,26,,,,1.89,0.92,1.65*0C
$GPGSV,3,1,11,29,73,133,43,21,57,269,43,05,37,054,43,51,33,159,36*72
$GPGSV,3,2,11,30,29,208,42,16,27,311,39,18,26,202,30,26,21,098,33*7F
$GPGSV,3,3,11,25,16,190,40,15,16,130,32,06,01,307,37*42
$GPRMC,000401.000,A,4736.9056,N,12223.4559,W,4.51,233.09,281010,,,D*7C
$GPVTG,233.09,T,,M,4.51,N,8.36,K,D*3E
$GPGGA,000402.000,4736.9050,N,12223.4575,W,2,9,0.92,2.0,M,-17.4,M,0000,0000*6D
$GPGSA,A,3,15,16,29,25,05,30,18,21,26,,,,1.89,0.92,1.65*0C
$GPGSV,3,1,11,29,73,133,43,21,57,269,43,05,37,054,44,51,33,159,38*7B
EPOCH
1288224242
$GPGSV,3,3,11,25,16,190,39,15,16,130,33,06,01,307,36*4C
$GPRMC,000402.000,A,4736.9050,N,12223.4575,W,4.66,240.97,281010,,,D*70
$GPVTG,240.97,T,,M,4.66,N,8.64,K,D*3E
$GPGGA,000403.000,4736.9044,N,12223.4590,W,2,9,0.92,1.2,M,-17.4,M,0000,0000*63
$GPGSA,A,3,15,16,29,25,05,30,18,21,26,,,,1.89,0.92,1.65*0C
$GPGSV,3,1,11,29,73,133,43,21,57,269,44,05,37,054,44,51,33,159,37*73
$GPGSV,3,2,11,30,29,208,43,16,27,311,42,18,26,202,30,26,21,098,33*72
$GPGSV,3,3,11,25,16,190,38,15,16,130,33,06,01,307,36*4D
$GPRMC,000403.000,A,4736.9044,N,12223.4590,W,3.99,238.58,281010,,,D*74
$GPVTG,238.58,T,,M,3.99,N,7.39,K,D*32
$GPGGA,000404.000,4736.9039,N,12223.4606,W,2,8,0.97,0.7,M,-17.4,M,0000,0000*62
$GPGSA,A,3,16,29,25,05,30,18,21,26,,,,,1.95,0.97,1.70*04
EPOCH
1288224244
$GPGSV,3,2,11,30,29,208,43,16,27,311,42,18,26,202,30,26,21,098,33*72
$GPGSV,3,3,11,25,16,190,39,15,16,130,25,06,01,307,37*4A
$GPRMC,000404.000,A,4736.9039,N,12223.4606,W,4.46,243.25,281010,,,D*76
$GPVTG,243.25,T,,M,4.46,N,8.26,K,D*30
$GPGGA,000405.000,4736.9033,N,12223.4626,W,2,9,0.92,0.6,M,-17.4,M,0000,0000*6E
$GPGSA,A,3,15,16,29,25,05,30,18,21,26,,,,1.89,0.92,1.65*0C
$GPGSV,3,1,11,29,73,133,44,21,58,270,45,05,37,054,43,51,33,159,34*76
$GPGSV,3,2,11,30,29,208,44,16,27,311,40,18,26,202,31,26,21,098,31*74
$GPGSV,3,3,11,25,16,190,39,15,16,130,35,06,01,307,37*4B
$GPRMC,000405.000,A,4736.9033,N,12223.4626,W,4.51,234.09,281010,,,D*77
$GPVTG,234.09,T,,M,4.51,N,8.36,K,D*39
$GPGGA,000406.000,4736.9026,N,12223.4639,W,2,9,0.92,0.2,M,-17.4,M,0000,0000*63
EPOCH
1288224246
$GPGSV,3,1,11,29,73,133,44,21,58,270,45,05,37,054,42,51,33,159,33*70
$GPGSV,3,2,11,30,29,208,44,16,27,311,39,18,26,202,31,26,21,098,31*7A
$GPGSV,3,3,11,25,16,190,39,15,16,130,35,06,01,307,37*4B
$GPRMC,000406.000,A,4736.9026,N,12223.4639,W,4.65,238.41,281010,,,D*79
$GPVTG,238.41,T,,M,4.65,N,8.62,K,D*3F
$GPGGA,000407.000,4736.9019,N,12223.4656,W,2,9,0.92,-0.6,M,-17.4,M,0000,0000*4E
$GPGSA,A,3,15,16,29,25,05,30,18,21,26,,,,1.89,0.92,1.65*0C
$GPGSV,3,1,11,29,73,133,44,21,58,270,46,05,37,054,43,51,33,159,32*73
$GPGSV,3,2,11,30,29,208,43,16,27,311,39,18,26,202,31,26,21,098,32*7E
$GPGSV,3,3,11,25,16,190,39,15,16,130,33,06,01,307,38*42
$GPRMC,000407.000,A,4736.9019,N,12223.4656,W,4.04,240.40,281010,,,D*74
$GPVTG,240.40,T,,M,4.04,N,7.49,K,D*30
EPOCH
1288224248
$GPGSA,A,3,15,16,29,25,05,30,18,21,26,,,,1.89,0.92,1.65*0C
$GPGSV,3,1,11,29,73,133,44,21,58,270,47,05,37,054,36,51,33,159,33*71
$GPGSV,3,2,11,30,29,208,44,16,27,311,38,18,26,202,30,26,21,098,31*7A
$GPGSV,3,3,11,25,16,190,39,15,16,130,34,06,01,307,38*45
$GPRMC,000408.000,A,4736.9012,N,12223.4671,W,4.75,239.44,281010,,,D*79
$GPVTG,239.44,T,,M,4.75,N,8.80,K,D*36
$GPGGA,000409.000,4736.9007,N,12223.4687,W,2,9,0.92,-1.4,M,-17.4,M,0000,0000*40
$GPGSA,A,3,15,16,29,25,05,30,18,21,26,,,,1.89,0.92,1.65*0C
$GPGSV,3,1,11,29,73,133,44,21,58,270,40,05,37,054,36,51,33,159,31*74
$GPGSV,3,2,11,30,29,208,42,16,27,311,39,18,26,202,31,26,21,098,32*7F
$GPGSV,3,3,11,25,16,189,39,15,16,130,34,06,01,307,38*4D
$GPRMC,000409.000,A,4736.9007,N,12223.4687,W,4.50,237.45,281010,,,D*7D
EPOCH
1288224249
$GPGGA,000410.000,4736.9000,N,12223.4701,W,2,9,0.92,-1.6,M,-17.4,M,0000,0000*42
$GPGSA,A,3,15,16,29,25,05,30,18,21,26,,,,1.89,0.92,1.65*0C
$GPGSV,3,1,11,29,73,133,44,21,58,270,48,05,37,054,36,51,33,159,31*7C
$GPGSV,3,2,11,30,29,208,43,16,27,311,38,18,26,202,32,26,21,098,31*7F
$GPGSV,3,3,11,25,16,189,40,15,16,130,34,06,01,307,38*43
$GPRMC,000410.000,A,4736.9000,N,12223.4701,W,4.21,234.73,281010,,,D*7D
$GPVTG,234.73,T,,M,4.21,N,7.80,K,D*31
$GPGGA,000411.000,4736.8995,N,12223.4716,W,2,9,0.92,-2.1,M,-17.4,M,0000,0000*45
$GPGSA,A,3,15,16,29,25,05,30,18,21,26,,,,1.89,0.92,1.65*0C
$GPGSV,3,1,11,29,73,133,45,21,58,270,46,05,37,054,45,51,33,159,30*76
$GPGSV,3,2,11,30,29,208,44,16,27,311,38,18,26,202,32,26,21,098,31*78
$GPGSV,3,3,11,25,16,189,39,15,16,130,32,06,01,307,38*4B
EPOCH
1288224251
$GPVTG,243.35,T,,M,4.38,N,8.12,K,D*3F
$GPGGA,000412.000,4736.8990,N,12223.4730,W,2,9,0.92,-2.5,M,-17.4,M,0000,0000*43
$GPGSA,A,3,15,16,29,25,05,30,18,21,26,,,,1.89,0.92,1.65*0C
