EPOCH
1276354208
$GPGGA,145007.000,6430.0375,N,16525.5327,W,2,10,0.83,15.6,M,7.8,M,0000,0000*7B
$GPGSA,A,3,22,14,28,20,17,19,32,09,27,11,,,1.99,0.83,1.81*0E
$GPGSV,3,1,11,11,60,251,32,14,47,094,16,32,44,216,22,19,26,179,31*73
$GPGSV,3,2,11,28,23,281,29,22,21,070,21,20,20,233,32,17,20,317,17*70
$GPGSV,3,3,11,09,17,010,27,47,16,198,,27,14,001,15*43
$GPRMC,145007.000,A,6430.0375,N,16525.5327,W,6.04,266.21,120610,,,D*7F
$GPVTG,266.21,T,,M,6.04,N,11.19,K,D*03
$GPGGA,145008.000,6430.0374,N,16525.5362,W,2,9,0.89,15.7,M,7.8,M,0000,0000*47
$GPGSA,A,3,22,14,28,20,19,32,09,27,11,,,,2.02,0.89,1.81*03
$GPGSV,3,1,11,11,60,251,31,14,47,094,24,32,44,216,31,19,26,179,30*72
EPOCH
1276354209
$GPGSV,3,3,11,09,17,010,29,47,16,198,,27,14,001,15*4D
$GPRMC,145008.000,A,6430.0374,N,16525.5362,W,6.05,268.57,120610,,,D*7E
$GPVTG,268.57,T,,M,6.05,N,11.21,K,D*06
$GPGGA,145009.000,6430.0373,N,16525.5399,W,2,10,0.83,16.3,M,7.8,M,0000,0000*70
$GPGSA,A,3,22,14,28,20,17,19,32,09,27,11,,,1.99,0.83,1.81*0E
$GPGSV,3,1,11,11,60,251,20,14,47,094,24,32,44,216,31,19,26,179,31*73
$GPGSV,3,2,11,28,23,281,21,22,21,070,19,20,20,233,32,17,20,317,34*72
$GPGSV,3,3,11,09,17,010,29,27,14,001,26,35,14,154,*4A
$GPRMC,145009.000,A,6430.0373,N,16525.5399,W,6.23,267.64,120610,,,D*77
$GPVTG,267.64,T,,M,6.23,N,11.55,K,D*0E
$GPGGA,145010.000,6430.0371,N,16525.5438,W,2,9,0.91,17.2,M,7.8,M,0000,0000*4D
$GPGSA,A,3,22,14,28,17,19,32,09,27,11,,,,2.23,0.91,2.04*03
EPOCH
1276354211
$GPGSV,3,2,11,28,23,281,29,22,21,070,18,20,20,233,23,17,20,317,34*7B
$GPGSV,3,3,11,09,17,010,30,27,14,001,26,35,14,154,*42
$GPRMC,145010.000,A,6430.0371,N,16525.5438,W,6.20,263.12,120610,,,D*77
$GPVTG,263.12,T,,M,6.20,N,11.49,K,D*05
$GPGGA,145011.000,6430.0368,N,16525.5470,W,2,9,0.83,17.2,M,7.8,M,0000,0000*4B
$GPGSA,A,3,22,14,28,17,19,32,09,27,11,,,,1.22,0.83,0.90*0D
$GPGSV,3,1,11,11,60,251,21,14,47,094,22,32,44,216,23,19,26,179,34*72
$GPGSV,3,2,11,28,23,281,27,22,21,070,18,20,20,233,23,17,20,317,34*75
$GPGSV,3,3,11,09,17,010,32,27,14,001,27,35,14,154,*41
$GPRMC,145011.000,A,6430.0368,N,16525.5470,W,6.15,263.37,120610,,,D*73
$GPVTG,263.37,T,,M,6.15,N,11.40,K,D*0D
$GPGGA,145012.000,6430.0367,N,16525.5490,W,2,9,0.89,18.9,M,7.8,M,0000,0000*47
EPOCH
1276354213
$GPGSV,3,1,11,11,60,251,23,14,47,094,20,32,44,216,25,19,26,179,35*75
$GPGSV,3,2,11,28,23,281,28,22,21,070,18,20,20,233,25,17,20,317,28*71
$GPGSV,3,3,11,09,17,010,32,27,14,001,27,35,14,154,*41
$GPRMC,145012.000,A,6430.0367,N,16525.5490,W,5.72,258.60,120610,,,D*79
$GPVTG,258.60,T,,M,5.72,N,10.60,K,D*06
$GPGGA,145013.000,6430.0362,N,16525.5522,W,2,8,1.01,18.7,M,7.8,M,0000,0000*45
$GPGSA,A,3,22,28,17,19,32,09,27,11,,,,,2.60,1.01,2.39*07
$GPGSV,3,1,11,11,60,251,25,14,47,094,19,32,44,216,27,19,26,179,36*78
$GPGSV,3,2,11,28,23,281,27,22,21,070,18,20,20,233,23,17,20,317,33*72
$GPGSV,3,3,11,09,17,010,32,27,14,001,27,35,14,154,*41
$GPRMC,145013.000,A,6430.0362,N,16525.5522,W,5.82,257.23,120610,,,D*72
$GPVTG,257.23,T,,M,5.82,N,10.79,K,D*09
EPOCH
1276354215
$GPGSA,A,3,22,28,20,17,19,32,09,27,11,,,,2.23,0.89,2.04*0D
$GPGSV,3,1,11,11,60,251,26,14,47,094,18,32,44,216,28,19,26,179,36*75
$GPGSV,3,2,11,28,23,281,27,22,21,070,18,20,20,233,24,17,20,317,34*72
$GPGSV,3,3,11,09,17,010,32,27,14,001,27,35,14,154,*41
$GPRMC,145014.000,A,6430.0357,N,16525.5554,W,5.69,255.98,120610,,,D*75
$GPVTG,255.98,T,,M,5.69,N,10.54,K,D*01
$GPGGA,145015.000,6430.0351,N,16525.5585,W,2,10,0.83,18.7,M,7.8,M,0000,0000*7C
$GPGSA,A,3,22,14,28,20,17,19,32,09,27,11,,,1.99,0.83,1.81*0E
$GPGSV,3,1,11,11,60,251,27,14,47,094,19,32,44,216,29,19,26,179,36*74
$GPGSV,3,2,11,28,23,281,27,22,21,070,17,20,20,233,33,17,20,317,35*7A
$GPGSV,3,3,11,09,17,010,32,27,14,001,27,35,14,154,*41
$GPRMC,145015.000,A,6430.0351,N,16525.5585,W,6.13,256.29,120610,,,D*79
EPOCH
1276354216
$GPGGA,145016.000,6430.0342,N,16525.5618,W,2,10,0.78,18.0,M,7.8,M,0000,0000*79
$GPGSA,A,3,22,14,28,20,17,19,32,09,27,11,,,1.17,0.78,0.88*04
$GPGSV,3,1,11,11,60,251,26,14,47,094,19,32,44,216,29,19,26,179,35*76
$GPGSV,3,2,11,28,23,281,27,22,21,070,17,20,20,233,33,17,20,317,35*7A
$GPGSV,3,3,11,09,17,010,31,27,14,001,27,35,14,154,*42
$GPRMC,145016.000,A,6430.0342,N,16525.5618,W,5.88,256.55,120610,,,D*75
$GPVTG,256.55,T,,M,5.88,N,10.89,K,D*0C
$GPGGA,145017.000,6430.0334,N,16525.5654,W,2,9,0.89,17.9,M,7.8,M,0000,0000*41
$GPGSA,A,3,22,28,20,17,19,32,09,27,11,,,,2.23,0.89,2.04*0D
$GPGSV,3,1,11,11,60,251,26,14,47,094,18,32,44,216,28,19,26,179,33*70
$GPGSV,3,2,11,28,23,281,27,22,21,070,17,20,20,233,34,17,20,317,34*7C
$GPGSV,3,3,11,09,17,010,29,27,14,001,26,35,14,154,*4A
EPOCH
1276354218
$GPVTG,254.04,T,,M,6.11,N,11.32,K,D*08
$GPGGA,145018.000,6430.0328,N,16525.5687,W,2,10,0.83,17.6,M,7.8,M,0000,0000*70
$GPGSA,A,3,22,14,28,20,17,19,32,09,27,11,,,1.99,0.83,1.81*0E
$GPGSV,3,1,11,11,60,251,26,14,47,094,18,32,44,216,28,19,26,179,33*70
$GPGSV,3,2,11,28,23,281,27,22,21,070,17,20,20,233,33,17,20,317,33*7C
$GPGSV,3,3,11,09,17,010,30,27,14,001,27,35,14,154,*43
$GPRMC,145018.000,A,6430.0328,N,16525.5687,W,6.12,253.96,120610,,,D*7B
$GPVTG,253.96,T,,M,6.12,N,11.34,K,D*01
$GPGGA,145019.000,6430.0322,N,16525.5728,W,2,10,0.78,17.5,M,7.8,M,0000,0000*78
$GPGSA,A,3,22,14,28,20,17,19,32,09,27,11,,,1.17,0.78,0.88*04
$GPGSV,3,1,11,11,60,251,17,14,47,093,19,32,44,216,26,19,26,179,32*7B
$GPGSV,3,2,11,28,23,281,26,22,21,070,16,20,20,233,32,17,20,317,32*7C
EPOCH
1276354220
$GPRMC,145019.000,A,6430.0322,N,16525.5728,W,5.82,252.88,120610,,,D*70
$GPVTG,252.88,T,,M,5.82,N,10.78,K,D*0C
$GPGGA,145020.000,6430.0318,N,16525.5765,W,2,10,0.83,17.8,M,7.8,M,0000,0000*7B
$GPGSA,A,3,22,14,28,20,17,19,32,09,27,11,,,1.99,0.83,1.81*0E
$GPGSV,3,1,11,11,60,251,19,14,47,093,20,32,44,216,25,19,26,179,31*7F
$GPGSV,3,2,11,28,23,281,24,22,21,070,16,20,20,233,31,17,20,317,33*7C
$GPGSV,3,3,11,09,17,010,29,27,14,001,26,35,14,154,*4A
$GPRMC,145020.000,A,6430.0318,N,16525.5765,W,5.74,253.56,120610,,,D*71
$GPVTG,253.56,T,,M,5.74,N,10.64,K,D*0A
$GPGGA,145021.000,6430.0313,N,16525.5797,W,2,10,0.83,17.5,M,7.8,M,0000,0000*71
$GPGSA,A,3,22,14,28,20,17,19,32,09,27,11,,,1.99,0.83,1.81*0E
$GPGSV,3,1,11,11,60,251,27,14,47,093,21,32,44,216,27,19,26,179,31*71
EPOCH
1276354222
$GPGSV,3,3,11,09,17,010,30,27,14,001,26,35,14,154,*42
$GPRMC,145021.000,A,6430.0313,N,16525.5797,W,5.93,253.22,120610,,,D*7C
$GPVTG,253.22,T,,M,5.93,N,10.98,K,D*03
$GPGGA,145022.000,6430.0307,N,16525.5834,W,2,10,0.83,16.5,M,7.8,M,0000,0000*70
$GPGSA,A,3,22,14,28,20,17,19,32,09,27,11,,,1.99,0.83,1.81*0E
$GPGSV,3,1,11,11,60,251,28,14,47,093,23,32,44,216,29,19,26,179,31*72
$GPGSV,3,2,11,28,23,281,35,22,21,070,16,20,20,233,30,17,20,317,32*7C
$GPGSV,3,3,11,09,17,010,31,27,14,001,27,50,07,232,*40
$GPRMC,145022.000,A,6430.0307,N,16525.5834,W,5.90,251.64,120610,,,D*7F
$GPVTG,251.64,T,,M,5.90,N,10.93,K,D*0B
$GPGGA,145023.000,6430.0303,N,16525.5865,W,2,10,0.83,15.3,M,7.8,M,0000,0000*74
$GPGSA,A,3,22,14,28,20,17,19,32,09,27,11,,,1.99,0.83,1.81*0E
EPOCH
1276354224
$GPGSV,3,2,11,28,23,281,36,22,21,070,16,20,20,233,31,17,20,317,31*7D
$GPGSV,3,3,11,09,17,010,32,27,14,001,28,50,07,232,*4C
$GPRMC,145023.000,A,6430.0303,N,16525.5865,W,5.92,250.83,120610,,,D*74
$GPVTG,250.83,T,,M,5.92,N,10.98,K,D*0A
$GPGGA,145024.000,6430.0294,N,16525.5895,W,2,10,0.83,12.9,M,7.8,M,0000,0000*7E
$GPGSA,A,3,22,14,28,20,17,19,32,09,27,11,,,1.99,0.83,1.81*0E
$GPGSV,3,1,11,11,60,251,29,14,47,093,26,32,44,216,31,19,26,179,27*78
$GPGSV,3,2,11,28,23,281,36,22,21,070,16,20,20,233,31,17,20,317,31*7D
$GPGSV,3,3,11,09,17,010,32,27,14,001,27,50,07,232,*43
$GPRMC,145024.000,A,6430.0294,N,16525.5895,W,6.14,251.68,120610,,,D*7A
$GPVTG,251.68,T,,M,6.14,N,11.38,K,D*08
$GPGGA,145025.000,6430.0288,N,16525.5934,W,2,10,0.83,11.3,M,7.8,M,0000,0000*71
EPOCH
1276354226
$GPGSV,3,1,11,11,60,251,29,14,47,093,27,32,44,216,31,19,26,179,26*78
$GPGSV,3,2,11,28,23,281,35,22,21,070,16,20,20,233,31,17,20,317,32*7D
$GPGSV,3,3,11,09,17,010,31,27,14,001,28,50,07,232,*4F
$GPRMC,145025.000,A,6430.0288,N,16525.5934,W,6.08,250.09,120610,,,D*77
$GPVTG,250.09,T,,M,6.08,N,11.26,K,D*0C
$GPGGA,145026.000,6430.0282,N,16525.5982,W,2,10,0.83,9.1,M,7.8,M,0000,0000*4E
$GPGSA,A,3,22,14,28,20,17,19,32,09,27,11,,,1.99,0.83,1.81*0E
$GPGSV,3,1,11,11,60,251,27,14,47,093,28,32,44,216,29,19,26,179,28*7E
$GPGSV,3,2,11,28,23,281,34,22,21,070,16,20,20,233,30,17,20,317,33*7C
$GPGSV,3,3,11,09,17,010,30,27,14,001,29,50,07,232,*4F
$GPRMC,145026.000,A,6430.0282,N,16525.5982,W,6.26,249.98,120610,,,D*7F
$GPVTG,249.98,T,,M,6.26,N,11.60,K,D*02
EPOCH
1276354228
$GPGSA,A,3,14,28,20,17,19,32,09,27,11,,,,2.11,0.95,1.88*03
$GPGSV,3,1,11,11,60,251,25,14,47,093,29,32,44,216,27,19,26,179,35*7F
$GPGSV,3,2,11,28,23,281,35,22,21,070,16,20,20,233,29,17,20,317,34*72
$GPGSV,3,3,11,09,17,010,30,27,14,001,30,50,07,232,*47
$GPRMC,145027.000,A,6430.0279,N,16525.6013,W,6.11,250.16,120610,,,D*72
$GPVTG,250.16,T,,M,6.11,N,11.32,K,D*0F
$GPGGA,145028.000,6430.0272,N,16525.6049,W,2,8,0.90,9.4,M,7.8,M,0000,0000*7C
$GPGSA,A,3,14,28,20,17,19,32,09,27,,,,,1.30,0.90,0.94*0A
$GPGSV,3,1,11,11,60,251,18,14,47,093,28,32,44,216,26,19,26,179,34*70
$GPGSV,3,2,11,28,23,281,35,22,21,070,16,20,20,233,29,17,20,317,34*72
$GPGSV,3,3,11,09,17,010,31,27,14,001,31,50,07,232,33*47
$GPRMC,145028.000,A,6430.0272,N,16525.6049,W,6.07,249.09,120610,,,D*78
EPOCH
1276354229
$GPGGA,145029.000,6430.0266,N,16525.6089,W,2,10,0.83,9.2,M,7.8,M,0000,0000*49
$GPGSA,A,3,22,14,28,20,17,19,32,09,27,11,,,1.99,0.83,1.81*0E
$GPGSV,3,1,11,11,60,251,18,14,47,093,27,32,44,216,16,19,26,179,22*7B
$GPGSV,3,2,11,28,23,281,34,22,21,070,16,20,20,233,30,17,20,317,34*7B
$GPGSV,3,3,11,09,17,010,30,27,14,001,31,50,07,232,31*44
$GPRMC,145029.000,A,6430.0266,N,16525.6089,W,6.24,250.31,120610,,,D*72
$GPVTG,250.31,T,,M,6.24,N,11.57,K,D*0F
$GPGGA,145030.000,6430.0263,N,16525.6123,W,2,9,0.84,9.7,M,7.8,M,0000,0000*7F
$GPGSA,A,3,22,14,28,20,17,19,09,27,11,,,,2.05,0.84,1.87*08
$GPGSV,3,1,11,11,60,251,19,14,47,093,28,32,44,216,15,19,26,179,23*77
$GPGSV,3,2,11,28,23,281,34,22,21,070,16,20,20,233,31,17,20,317,32*7C
$GPGSV,3,3,11,09,17,010,31,27,14,001,31,50,07,232,30*44
EPOCH
1276354231
$GPVTG,250.77,T,,M,6.60,N,12.22,K,D*0C
$GPGGA,145031.000,6430.0256,N,16525.6146,W,2,8,0.82,9.4,M,7.8,M,0000,0000*7F
$GPGSA,A,3,22,14,28,20,17,19,09,27,,,,,1.26,0.82,0.95*0E
$GPGSV,3,1,11,11,60,251,19,14,47,093,28,32,44,216,15,19,26,179,33*76
$GPGSV,3,2,11,28,23,281,34,22,21,070,16,20,20,233,32,17,20,317,32*7F
$GPGSV,3,3,11,09,17,010,31,27,14,001,32,50,07,232,29*4F
$GPRMC,145031.000,A,6430.0256,N,16525.6146,W,6.25,245.72,120610,,,D*78
$GPVTG,245.72,T,,M,6.25,N,11.59,K,D*03
$GPGGA,145032.000,6430.0247,N,16525.6187,W,2,8,1.16,9.7,M,7.8,M,0000,0000*7E
$GPGSA,A,3,28,20,17,19,32,09,27,11,,,,,2.35,1.16,2.04*0D
$GPGSV,3,1,11,11,60,251,20,14,47,093,18,32,44,216,16,19,26,179,32*7D
$GPGSV,3,2,11,28,23,281,32,22,21,070,16,20,20,233,31,17,20,317,32*7A
EPOCH
1276354233
$GPRMC,145032.000,A,6430.0247,N,16525.6187,W,6.20,248.53,120610,,,D*7D
$GPVTG,248.53,T,,M,6.20,N,11.49,K,D*09
$GPGGA,145033.000,6430.0243,N,16525.6223,W,2,9,0.89,9.7,M,7.8,M,0000,0000*70
$GPGSA,A,3,22,28,20,17,19,32,09,27,11,,,,2.23,0.89,2.04*0D
$GPGSV,3,1,11,11,60,251,27,14,47,093,18,32,44,216,16,19,26,179,30*78
$GPGSV,3,2,11,28,23,281,32,22,21,070,17,20,20,233,24,17,20,317,22*7E
$GPGSV,3,3,11,09,17,010,34,27,14,000,31,50,07,232,30*40
$GPRMC,145033.000,A,6430.0243,N,16525.6223,W,6.03,248.55,120610,,,D*72
$GPVTG,248.55,T,,M,6.03,N,11.18,K,D*0A
$GPGGA,145034.000,6430.0238,N,16525.6254,W,2,10,0.78,9.7,M,7.8,M,0000,0000*4D
$GPGSA,A,3,22,14,28,20,17,19,32,09,27,11,,,1.17,0.78,0.87*0B
$GPGSV,3,1,11,11,60,251,27,14,47,093,18,32,44,216,17,19,26,179,31*78
EPOCH
1276354235
$GPGSV,3,3,11,09,17,010,32,27,14,000,30,42,05,237,*40
$GPRMC,145034.000,A,6430.0238,N,16525.6254,W,5.36,241.95,120610,,,D*79
$GPVTG,241.95,T,,M,5.36,N,9.94,K,D*37
$GPGGA,145035.000,6430.0231,N,16525.6285,W,2,10,0.83,10.0,M,7.8,M,0000,0000*72
$GPGSA,A,3,22,14,28,20,17,19,32,09,27,11,,,1.99,0.83,1.81*0E
$GPGSV,3,1,11,11,60,251,28,14,47,093,18,32,44,216,18,19,26,179,31*78
$GPGSV,3,2,11,28,23,281,23,22,21,070,18,20,20,233,22,17,20,317,31*75
$GPGSV,3,3,11,09,17,010,31,27,14,000,23,42,05,237,28*4B
$GPRMC,145035.000,A,6430.0231,N,16525.6285,W,5.75,241.18,120610,,,D*7F
$GPVTG,241.18,T,,M,5.75,N,10.66,K,D*00
$GPGGA,145036.000,6430.0223,N,16525.6308,W,2,9,0.89,9.6,M,7.8,M,0000,0000*7A
$GPGSA,A,3,22,28,20,17,19,32,09,27,11,,,,2.22,0.89,2.04*0C
EPOCH
1276354237
$GPGSV,3,2,11,28,23,281,24,22,21,070,20,20,20,233,24,17,20,317,32*7C
$GPGSV,3,3,11,09,17,010,30,27,14,000,23,42,05,237,28*4A
$GPRMC,145036.000,A,6430.0223,N,16525.6308,W,6.13,238.92,120610,,,D*74
$GPVTG,238.92,T,,M,6.13,N,11.35,K,D*08
$GPGGA,145037.000,6430.0216,N,16525.6345,W,2,9,0.89,9.8,M,7.8,M,0000,0000*7A
$GPGSA,A,3,22,28,20,17,19,32,09,27,11,,,,2.22,0.89,2.04*0C
$GPGSV,3,1,11,11,60,251,30,14,47,093,16,32,44,216,18,19,26,179,33*7D
$GPGSV,3,2,11,28,23,281,24,22,21,070,20,20,20,233,24,17,20,317,32*7C
$GPGSV,3,3,11,09,17,010,30,27,14,000,23,42,05,237,27*45
$GPRMC,145037.000,A,6430.0216,N,16525.6345,W,6.46,240.18,120610,,,D*77
$GPVTG,240.18,T,,M,6.46,N,11.97,K,D*0D
$GPGGA,145038.000,6430.0210,N,16525.6382,W,2,10,0.83,10.0,M,7.8,M,0000,0000*7A
EPOCH
1276354239
$GPGSV,3,1,11,11,60,251,30,14,47,093,16,32,44,216,20,19,26,179,33*76
$GPGSV,3,2,11,28,23,281,23,22,21,070,20,20,20,233,26,17,20,317,32*79
$GPGSV,3,3,11,09,17,010,31,27,14,000,24,42,05,237,28*4C
$GPRMC,145038.000,A,6430.0210,N,16525.6382,W,6.57,241.26,120610,,,D*79
$GPVTG,241.26,T,,M,6.57,N,12.17,K,D*0A
$GPGGA,145039.000,6430.0205,N,16525.6423,W,2,9,0.89,10.9,M,7.8,M,0000,0000*48
$GPGSA,A,3,22,28,20,17,19,32,09,27,11,,,,2.22,0.89,2.04*0C
$GPGSV,3,1,11,11,60,251,30,14,47,093,16,32,44,216,21,19,26,179,33*77
$GPGSV,3,2,11,28,23,281,22,22,21,070,20,20,20,233,27,17,20,317,32*79
$GPGSV,3,3,11,09,17,010,32,27,14,000,25,42,05,237,28*4E
$GPRMC,145039.000,A,6430.0205,N,16525.6423,W,6.56,241.52,120610,,,D*72
$GPVTG,241.52,T,,M,6.56,N,12.15,K,D*0A
EPOCH
1276354241
$GPGSA,A,3,22,28,20,17,19,32,09,27,11,,,,1.24,0.85,0.90*0A
$GPGSV,3,1,11,11,60,251,30,14,47,093,16,32,44,216,23,19,26,179,26*71
$GPGSV,3,2,11,28,23,281,30,22,21,070,19,20,20,233,28,17,20,317,32*7F
$GPGSV,3,3,11,09,17,010,32,27,14,000,25,42,05,237,27*41
$GPRMC,145040.000,A,6430.0196,N,16525.6458,W,6.12,239.96,120610,,,D*7E
$GPVTG,239.96,T,,M,6.12,N,11.34,K,D*0D
$GPGGA,145041.000,6430.0183,N,16525.6491,W,2,10,0.83,11.7,M,7.8,M,0000,0000*7E
$GPGSA,A,3,22,14,28,20,17,19,32,09,27,11,,,1.98,0.83,1.80*0E
$GPGSV,3,1,11,11,60,251,29,14,47,093,16,32,44,216,34,19,26,179,28*71
$GPGSV,3,2,11,28,23,281,29,22,21,070,20,20,20,233,28,17,20,317,32*7D
$GPGSV,3,3,11,09,17,010,32,27,14,000,25,42,05,237,26*40
$GPRMC,145041.000,A,6430.0183,N,16525.6491,W,6.57,237.50,120610,,,D*7B
EPOCH
1276354242
$GPGGA,145042.000,6430.0170,N,16525.6524,W,2,9,0.89,13.4,M,7.8,M,0000,0000*4D
$GPGSA,A,3,22,14,28,20,17,19,32,09,27,,,,2.75,0.89,2.60*09
$GPGSV,3,1,11,11,60,251,17,14,47,093,17,32,44,216,35,19,26,179,28*7C
$GPGSV,3,2,11,28,23,281,28,22,21,070,19,20,20,233,21,17,20,317,31*7C
$GPGSV,3,3,11,09,17,010,31,27,14,000,27,42,05,237,26*41
$GPRMC,145042.000,A,6430.0170,N,16525.6524,W,6.50,241.10,120610,,,D*79
$GPVTG,241.10,T,,M,6.50,N,12.04,K,D*0A
$GPGGA,145043.000,6430.0159,N,16525.6552,W,2,10,0.83,14.1,M,7.8,M,0000,0000*76
$GPGSA,A,3,22,14,28,20,17,19,32,09,27,11,,,1.98,0.83,1.80*0E
$GPGSV,3,1,11,11,60,251,19,14,47,093,17,32,44,216,34,19,26,179,29*72
$GPGSV,3,2,11,28,23,281,29,22,21,070,20,20,20,233,32,17,20,317,31*75
$GPGSV,3,3,11,09,17,010,31,27,14,000,27,42,05,237,25*42
EPOCH
1276354244
$GPVTG,240.27,T,,M,6.43,N,11.92,K,D*01
$GPGGA,145044.000,6430.0147,N,16525.6587,W,2,10,0.83,14.5,M,7.8,M,0000,0000*72
$GPGSA,A,3,22,14,28,20,17,19,32,09,27,11,,,1.98,0.83,1.80*0E
$GPGSV,3,1,11,11,60,251,20,14,47,093,18,32,44,216,32,19,26,179,31*78
$GPGSV,3,2,11,28,23,281,29,22,21,070,21,20,20,233,31,17,20,317,32*74
$GPGSV,3,3,11,09,17,010,20,27,14,000,28,42,05,237,25*4D
$GPRMC,145044.000,A,6430.0147,N,16525.6587,W,6.69,235.20,120610,,,D*78
$GPVTG,235.20,T,,M,6.69,N,12.39,K,D*0E
$GPGGA,145045.000,6430.0133,N,16525.6611,W,2,10,0.83,13.5,M,7.8,M,0000,0000*7B
$GPGSA,A,3,22,14,28,20,17,19,32,09,27,11,,,1.98,0.83,1.80*0E
$GPGSV,3,1,11,11,60,251,33,14,47,093,26,32,44,216,31,19,26,179,31*74
$GPGSV,3,2,11,28,23,281,31,22,21,070,22,20,20,233,21,17,20,317,34*79
EPOCH
1276354246
$GPRMC,145045.000,A,6430.0133,N,16525.6611,W,6.33,234.31,120610,,,D*78
$GPVTG,234.31,T,,M,6.33,N,11.73,K,D*0D
$GPGGA,145046.000,6430.0120,N,16525.6635,W,2,10,0.83,11.5,M,7.8,M,0000,0000*7E
$GPGSA,A,3,22,14,28,20,17,19,32,09,27,11,,,1.98,0.83,1.80*0E
$GPGSV,3,1,11,11,60,251,34,14,47,093,26,32,44,216,33,19,26,179,32*72
$GPGSV,3,2,11,28,23,281,33,22,21,070,29,20,20,233,22,17,20,317,34*73
$GPGSV,3,3,11,09,17,009,20,27,14,000,29,51,04,119,*4F
$GPRMC,145046.000,A,6430.0120,N,16525.6635,W,6.48,232.02,120610,,,D*75
$GPVTG,232.02,T,,M,6.48,N,12.01,K,D*01
$GPGGA,145047.000,6430.0106,N,16525.6661,W,2,8,0.93,9.2,M,7.8,M,0000,0000*7C
$GPGSA,A,3,22,28,20,17,19,32,27,11,,,,,2.24,0.93,2.03*0F
$GPGSV,3,1,11,11,60,251,34,14,47,093,17,32,44,216,35,19,26,179,33*77
EPOCH
1276354248
$GPGSV,3,3,11,09,17,009,19,27,14,000,28,51,04,119,33*44
$GPRMC,145047.000,A,6430.0106,N,16525.6661,W,6.73,231.14,120610,,,D*7D
$GPVTG,231.14,T,,M,6.73,N,12.48,K,D*00
$GPGGA,145048.000,6430.0094,N,16525.6686,W,2,8,0.93,9.7,M,7.8,M,0000,0000*75
$GPGSA,A,3,22,28,20,17,19,32,27,11,,,,,2.24,0.93,2.03*0F
$GPGSV,3,1,11,11,60,250,33,14,47,093,17,32,44,216,36,19,26,179,35*74
$GPGSV,3,2,11,28,23,281,34,22,21,070,18,20,20,233,26,17,20,317,34*72
$GPGSV,3,3,11,09,17,009,18,27,14,000,27,51,04,119,35*4C
$GPRMC,145048.000,A,6430.0094,N,16525.6686,W,6.70,228.84,120610,,,D*73
$GPVTG,228.84,T,,M,6.70,N,12.41,K,D*0B
$GPGGA,145049.000,6430.0083,N,16525.6716,W,2,9,0.89,10.6,M,7.8,M,0000,0000*49
$GPGSA,A,3,22,28,20,17,19,32,09,27,11,,,,2.22,0.89,2.03*0B
EPOCH
1276354250
$GPGSV,3,2,11,28,23,281,34,22,21,070,18,20,20,233,26,17,20,317,17*73
$GPGSV,3,3,11,09,17,009,18,27,14,000,27,51,04,119,32*4B
$GPRMC,145049.000,A,6430.0083,N,16525.6716,W,6.94,228.13,120610,,,D*78
$GPVTG,228.13,T,,M,6.94,N,12.86,K,D*04
$GPGGA,145050.000,6430.0068,N,16525.6744,W,2,10,0.83,10.5,M,7.8,M,0000,0000*72
$GPGSA,A,3,22,14,28,20,17,19,32,09,27,11,,,1.98,0.83,1.80*0E
$GPGSV,3,1,11,11,60,250,32,14,47,093,18,32,44,216,34,19,26,179,35*78
$GPGSV,3,2,11,28,23,281,33,22,21,070,25,20,20,233,17,17,20,317,17*78
$GPGSV,3,3,11,09,17,009,18,27,14,000,27,51,04,119,30*49
$GPRMC,145050.000,A,6430.0068,N,16525.6744,W,6.75,228.56,120610,,,D*7C
$GPVTG,228.56,T,,M,6.75,N,12.51,K,D*00
$GPGGA,145051.000,6430.0055,N,16525.6772,W,2,10,0.83,10.7,M,7.8,M,0000,0000*7A
EPOCH
1276354252
$GPGSV,3,1,11,11,60,250,31,14,47,093,20,32,44,216,33,19,26,179,34*76
$GPGSV,3,2,11,28,23,281,24,22,21,070,26,20,20,233,25,17,20,317,27*7F
$GPGSV,3,3,11,09,17,009,18,27,14,000,26,51,04,119,27*4E
$GPRMC,145051.000,A,6430.0055,N,16525.6772,W,6.21,225.87,120610,,,D*76
$GPVTG,225.87,T,,M,6.21,N,11.51,K,D*03
$GPGGA,145052.000,6430.0041,N,16525.6800,W,2,10,0.78,11.0,M,7.8,M,0000,0000*74
$GPGSA,A,3,22,14,28,20,17,19,32,09,27,11,,,1.17,0.78,0.87*0B
$GPGSV,3,1,11,11,60,250,23,14,47,093,21,32,44,216,31,19,26,179,27*74
$GPGSV,3,2,11,28,23,281,24,22,21,070,25,20,20,233,25,17,20,317,27*7C
$GPGSV,3,3,11,09,17,009,19,27,14,000,26,51,04,119,26*4E
$GPRMC,145052.000,A,6430.0041,N,16525.6800,W,6.40,225.19,120610,,,D*7A
$GPVTG,225.19,T,,M,6.40,N,11.87,K,D*08
EPOCH
1276354254
$GPGSA,A,3,22,14,28,20,17,19,32,09,27,11,,,1.98,0.83,1.80*0E
$GPGSV,3,1,11,11,60,250,24,14,47,093,28,32,44,216,32,19,26,179,34*7B
$GPGSV,3,2,11,28,23,281,26,22,21,070,24,20,20,233,26,17,20,317,18*70
$GPGSV,3,3,11,09,17,009,21,27,14,000,24,51,04,119,26*47
$GPRMC,145053.000,A,6430.0026,N,16525.6822,W,6.77,220.63,120610,,,D*76
$GPVTG,220.63,T,,M,6.77,N,12.55,K,D*08
$GPGGA,145054.000,6430.0012,N,16525.6853,W,2,9,0.86,9.6,M,7.8,M,0000,0000*74
$GPGSA,A,3,22,14,28,20,17,19,32,09,11,,,,2.02,0.86,1.83*0D
$GPGSV,3,1,11,11,60,250,31,14,47,093,21,32,44,216,31,19,26,179,36*77
$GPGSV,3,2,11,28,23,281,33,22,21,070,22,20,20,233,25,17,20,317,26*7C
$GPGSV,3,3,11,09,17,009,22,27,14,000,16,51,04,119,26*45
$GPRMC,145054.000,A,6430.0012,N,16525.6853,W,6.38,216.19,120610,,,D*73
EPOCH
1276354255
$GPGGA,145055.000,6430.0001,N,16525.6883,W,2,10,0.83,9.5,M,7.8,M,0000,0000*44
$GPGSA,A,3,22,14,28,20,17,19,32,09,27,11,,,1.98,0.83,1.80*0E
$GPGSV,3,1,11,11,60,250,31,14,47,093,22,32,44,216,31,19,26,179,35*77
$GPGSV,3,2,11,28,23,281,32,22,21,070,20,20,20,233,27,17,20,317,28*73
$GPGSV,3,3,11,09,17,009,24,27,14,000,17,51,04,119,26*42
$GPRMC,145055.000,A,6430.0001,N,16525.6883,W,6.76,217.83,120610,,,D*75
$GPVTG,217.83,T,,M,6.76,N,12.52,K,D*04
$GPGGA,145056.000,6429.9990,N,16525.6915,W,2,10,0.83,9.4,M,7.8,M,0000,0000*48
$GPGSA,A,3,22,14,28,20,17,19,32,09,27,11,,,1.98,0.83,1.80*0E
$GPGSV,3,1,11,11,60,250,31,14,47,093,21,32,44,216,31,19,26,179,34*75
$GPGSV,3,2,11,28,23,281,32,22,21,070,20,20,20,233,29,17,20,317,30*74
$GPGSV,3,3,11,09,17,009,24,27,14,000,16,51,04,119,25*40
EPOCH
1276354257
$GPVTG,215.24,T,,M,6.46,N,11.98,K,D*0D
$GPGGA,145057.000,6429.9975,N,16525.6942,W,2,10,0.83,8.5,M,7.8,M,0000,0000*40
$GPGSA,A,3,22,14,28,20,17,19,32,09,27,11,,,1.98,0.83,1.80*0E
$GPGSV,3,1,11,11,60,250,31,14,47,093,20,32,44,216,31,19,26,179,33*73
$GPGSV,3,2,11,28,23,281,30,22,21,070,21,20,20,233,30,17,20,317,31*7E
$GPGSV,3,3,11,09,17,009,24,27,14,000,16,51,04,119,25*40
$GPRMC,145057.000,A,6429.9975,N,16525.6942,W,6.40,214.61,120610,,,D*7A
$GPVTG,214.61,T,,M,6.40,N,11.85,K,D*07
$GPGGA,145058.000,6429.9963,N,16525.6971,W,2,10,0.83,8.5,M,7.8,M,0000,0000*48
$GPGSA,A,3,22,14,28,20,17,19,32,09,27,11,,,1.98,0.83,1.80*0E
$GPGSV,3,1,11,11,60,250,32,14,47,093,19,32,44,216,31,19,26,179,33*7A
$GPGSV,3,2,11,28,23,281,29,22,21,070,20,20,20,233,31,17,20,317,32*75
EPOCH
1276354259
$GPRMC,145058.000,A,6429.9963,N,16525.6971,W,6.57,215.78,120610,,,D*7D
$GPVTG,215.78,T,,M,6.57,N,12.18,K,D*0F
$GPGGA,145059.000,6429.9949,N,16525.7000,W,2,9,0.89,8.4,M,7.8,M,0000,0000*7C
$GPGSA,A,3,22,28,20,17,19,32,09,27,11,,,,2.22,0.89,2.03*0B
$GPGSV,3,1,11,11,60,250,32,14,47,093,18,32,44,216,31,19,26,179,34*7C
$GPGSV,3,2,11,28,23,281,30,22,21,070,19,20,20,233,31,17,20,317,32*77
$GPGSV,3,3,11,09,17,009,24,27,14,000,15,48,11,141,35*43
$GPRMC,145059.000,A,6429.9949,N,16525.7000,W,6.52,215.66,120610,,,D*70
$GPVTG,215.66,T,,M,6.52,N,12.08,K,D*04
$GPGGA,145100.000,6429.9934,N,16525.7022,W,2,10,0.83,5.6,M,7.8,M,0000,0000*46
$GPGSA,A,3,22,14,28,20,17,19,32,09,27,11,,,1.98,0.83,1.80*0E
$GPGSV,3,1,11,11,60,250,33,14,47,093,19,32,44,216,31,19,26,179,34*7C
EPOCH
1276354261
$GPGSV,3,3,11,09,17,009,24,27,14,000,16,48,11,141,34*41
$GPRMC,145100.000,A,6429.9934,N,16525.7022,W,6.29,213.06,120610,,,D*7B
$GPVTG,213.06,T,,M,6.29,N,11.66,K,D*03
$GPGGA,145101.000,6429.9923,N,16525.7056,W,2,10,0.83,6.3,M,7.8,M,0000,0000*44
$GPGSA,A,3,22,14,28,20,17,19,32,09,27,11,,,1.98,0.83,1.80*0E
$GPGSV,3,1,11,11,60,250,33,14,47,093,19,32,44,216,31,19,26,179,34*7C
$GPGSV,3,2,11,28,23,281,31,22,21,070,17,20,20,233,31,17,20,317,31*7B
$GPGSV,3,3,11,09,17,009,25,27,14,000,16,48,11,141,35*41
$GPRMC,145101.000,A,6429.9923,N,16525.7056,W,6.42,213.28,120610,,,D*7E
$GPVTG,213.28,T,,M,6.42,N,11.90,K,D*0B
$GPGGA,145102.000,6429.9909,N,16525.7089,W,2,9,0.89,6.4,M,7.8,M,0000,0000*78
$GPGSA,A,3,22,28,20,17,19,32,09,27,11,,,,2.22,0.89,2.03*0B
EPOCH
1276354263
$GPGSV,3,2,11,28,23,281,30,22,21,070,17,20,20,233,31,17,20,317,31*7A
$GPGSV,3,3,11,09,17,009,25,27,14,000,16,48,11,141,36*42
$GPRMC,145102.000,A,6429.9909,N,16525.7089,W,7.16,214.65,120610,,,D*79
$GPVTG,214.65,T,,M,7.16,N,13.27,K,D*0B
$GPGGA,145103.000,6429.9890,N,16525.7114,W,2,10,0.83,6.4,M,7.8,M,0000,0000*4F
$GPGSA,A,3,22,14,28,20,17,19,32,09,27,11,,,1.98,0.83,1.80*0E
$GPGSV,3,1,11,11,60,250,33,14,47,093,18,32,44,216,31,19,26,179,35*7C
$GPGSV,3,2,11,28,23,281,30,22,21,070,16,20,20,233,31,17,20,317,32*78
$GPGSV,3,3,11,09,17,009,24,27,14,000,23,48,11,141,35*46
$GPRMC,145103.000,A,6429.9890,N,16525.7114,W,6.99,216.51,120610,,,D*7F
$GPVTG,216.51,T,,M,6.99,N,12.95,K,D*00
$GPGGA,145104.000,6429.9873,N,16525.7142,W,2,10,0.83,4.5,M,7.8,M,0000,0000*45
EPOCH
1276354265
$GPGSV,3,1,11,11,60,250,33,14,47,093,19,32,44,216,31,19,26,179,35*7D
$GPGSV,3,2,11,28,23,281,28,22,21,070,16,20,20,233,32,17,20,317,32*72
$GPGSV,3,3,11,09,17,009,22,27,14,000,24,48,11,141,35*47
$GPRMC,145104.000,A,6429.9873,N,16525.7142,W,6.90,215.35,120610,,,D*7E
$GPVTG,215.35,T,,M,6.90,N,12.78,K,D*0B
$GPGGA,145105.000,6429.9858,N,16525.7171,W,2,10,0.83,4.1,M,7.8,M,0000,0000*49
$GPGSA,A,3,22,14,28,20,17,19,32,09,27,11,,,1.98,0.83,1.80*0E
$GPGSV,3,1,11,11,60,250,33,14,47,093,19,32,44,216,31,19,26,179,35*7D
$GPGSV,3,2,11,28,23,281,27,22,21,070,16,20,20,233,33,17,20,317,32*7C
$GPGSV,3,3,11,09,17,009,21,27,14,000,24,48,11,141,35*44
$GPRMC,145105.000,A,6429.9858,N,16525.7171,W,7.13,217.04,120610,,,D*7C
$GPVTG,217.04,T,,M,7.13,N,13.22,K,D*0F
EPOCH
1276354267
$GPGSA,A,3,22,28,20,17,19,32,09,27,11,,,,2.22,0.89,2.03*0B
$GPGSV,3,1,11,11,60,250,32,14,47,093,18,32,44,216,32,19,26,179,36*7D
$GPGSV,3,2,11,28,23,281,26,22,21,070,17,20,20,233,33,17,20,317,32*7C
$GPGSV,3,3,11,09,17,009,20,27,14,000,23,48,11,141,35*42
$GPRMC,145106.000,A,6429.9842,N,16525.7193,W,7.03,214.52,120610,,,D*79
$GPVTG,214.52,T,,M,7.03,N,13.02,K,D*0C
$GPGGA,145107.000,6429.9824,N,16525.7207,W,2,9,0.89,2.8,M,7.8,M,0000,0000*7F
$GPGSA,A,3,22,28,20,17,19,32,09,27,11,,,,2.22,0.89,2.03*0B
$GPGSV,3,1,11,11,60,250,32,14,47,093,18,32,44,216,32,19,26,179,36*7D
$GPGSV,3,2,11,28,23,281,27,22,21,070,17,20,20,233,33,17,20,317,33*7C
$GPGSV,3,3,11,09,17,009,20,27,14,000,23,48,11,141,35*42
$GPRMC,145107.000,A,6429.9824,N,16525.7207,W,6.66,213.17,120610,,,D*72
EPOCH
1276354268
$GPGGA,145108.000,6429.9807,N,16525.7226,W,2,8,1.16,2.0,M,7.8,M,0000,0000*7C
$GPGSA,A,3,28,20,17,19,32,09,27,11,,,,,2.34,1.16,2.03*0B
$GPGSV,3,1,11,11,60,250,31,14,47,093,17,32,44,216,33,19,26,179,37*71
$GPGSV,3,2,11,28,23,281,27,22,21,070,17,20,20,233,33,17,20,317,32*7D
$GPGSV,3,3,11,09,17,009,21,27,14,000,25,48,11,141,34*44
$GPRMC,145108.000,A,6429.9807,N,16525.7226,W,6.76,214.12,120610,,,D*7C
$GPVTG,214.12,T,,M,6.76,N,12.52,K,D*0F
$GPGGA,145109.000,6429.9791,N,16525.7244,W,2,9,0.89,0.9,M,7.8,M,0000,0000*74
$GPGSA,A,3,22,28,20,17,19,32,09,27,11,,,,2.22,0.89,2.03*0B
$GPGSV,3,1,11,11,60,250,29,14,47,093,17,32,44,216,34,19,26,179,38*70
$GPGSV,3,2,11,28,23,281,28,22,21,070,18,20,20,233,32,17,20,317,24*7B
$GPGSV,3,3,11,09,17,009,21,27,14,000,25,48,11,141,34*44
EPOCH
1276354270
$GPVTG,211.92,T,,M,6.61,N,12.24,K,D*05
$GPGGA,145110.000,6429.9774,N,16525.7269,W,2,8,0.89,0.7,M,7.8,M,0000,0000*77
$GPGSA,A,3,22,28,20,17,19,32,27,11,,,,,1.27,0.89,0.90*0C
$GPGSV,3,1,11,11,60,250,28,14,47,093,18,32,44,216,35,19,26,179,38*7F
$GPGSV,3,2,11,28,23,281,29,22,21,070,19,20,20,233,31,17,20,317,24*78
$GPGSV,3,3,11,09,17,009,20,27,14,000,24,48,11,141,32*42
$GPRMC,145110.000,A,6429.9774,N,16525.7269,W,6.86,211.71,120610,,,D*7A
$GPVTG,211.71,T,,M,6.86,N,12.71,K,D*01
$GPGGA,145111.000,6429.9757,N,16525.7294,W,2,10,0.83,0.0,M,7.8,M,0000,0000*41
$GPGSA,A,3,22,14,28,20,17,19,32,09,27,11,,,1.98,0.83,1.80*0E
$GPGSV,3,1,11,11,60,250,29,14,47,093,18,32,44,216,35,19,26,179,38*7E
$GPGSV,3,2,11,28,23,281,36,22,21,070,20,20,20,233,30,17,20,317,22*7B
EPOCH
1276354272
$GPRMC,145111.000,A,6429.9757,N,16525.7294,W,6.67,213.03,120610,,,D*70
$GPVTG,213.03,T,,M,6.67,N,12.36,K,D*0A
$GPGGA,145112.000,6429.9742,N,16525.7312,W,2,9,0.89,-0.4,M,7.8,M,0000,0000*52
$GPGSA,A,3,22,28,20,17,19,32,09,27,11,,,,2.22,0.89,2.03*0B
$GPGSV,3,1,11,11,60,250,29,14,47,093,18,32,44,216,36,19,26,179,37*72
$GPGSV,3,2,11,28,23,281,35,22,21,070,20,20,20,233,28,17,20,317,21*72
$GPGSV,3,3,11,09,17,009,18,27,14,000,22,48,11,141,30*4D
$GPRMC,145112.000,A,6429.9742,N,16525.7312,W,6.20,211.97,120610,,,D*74
$GPVTG,211.97,T,,M,6.20,N,11.50,K,D*05
$GPGGA,145113.000,6429.9727,N,16525.7328,W,2,10,0.83,-1.4,M,7.8,M,0000,0000*6A
$GPGSA,A,3,22,14,28,20,17,19,32,09,27,11,,,1.98,0.83,1.79*08
$GPGSV,3,1,11,11,60,250,30,14,47,093,20,32,44,216,36,19,26,179,36*70
EPOCH
1276354274
$GPGSV,3,3,11,09,17,009,18,27,14,000,22,48,11,141,30*4D
$GPRMC,145113.000,A,6429.9727,N,16525.7328,W,6.63,215.05,120610,,,D*77
$GPVTG,215.05,T,,M,6.63,N,12.28,K,D*01
$GPGGA,145114.000,6429.9710,N,16525.7352,W,2,10,0.83,-2.7,M,7.8,M,0000,0000*64
$GPGSA,A,3,22,14,28,20,17,19,32,09,27,11,,,1.98,0.83,1.79*08
$GPGSV,3,1,11,11,60,250,30,14,47,093,27,32,44,216,37,19,26,179,36*76
$GPGSV,3,2,11,28,23,281,34,22,21,070,19,20,20,233,26,17,20,317,29*7F
$GPGSV,3,3,11,09,17,009,26,27,14,000,22,48,11,141,29*48
$GPRMC,145114.000,A,6429.9710,N,16525.7352,W,6.69,215.27,120610,,,D*73
$GPVTG,215.27,T,,M,6.69,N,12.39,K,D*0B
$GPGGA,145115.000,6429.9693,N,16525.7368,W,2,10,0.83,-3.3,M,7.8,M,0000,0000*63
$GPGSA,A,3,22,14,28,20,17,19,32,09,27,11,,,1.98,0.83,1.79*08
EPOCH
1276354276
$GPGSV,3,2,11,28,23,281,34,22,21,070,19,20,20,233,26,17,20,317,29*7F
$GPGSV,3,3,11,09,17,009,26,27,14,000,23,48,11,141,28*48
$GPRMC,145115.000,A,6429.9693,N,16525.7368,W,6.70,214.86,120610,,,D*73
$GPVTG,214.86,T,,M,6.70,N,12.42,K,D*05
$GPGGA,145116.000,6429.9678,N,16525.7383,W,2,10,0.83,-4.0,M,7.8,M,0000,0000*64
$GPGSA,A,3,22,14,28,20,17,19,32,09,27,11,,,1.98,0.83,1.79*08
$GPGSV,3,1,11,11,60,250,29,14,47,093,26,32,44,216,36,19,26,179,36*7E
$GPGSV,3,2,11,28,23,281,32,22,21,070,21,20,20,233,25,17,20,317,29*71
$GPGSV,3,3,11,09,17,009,26,27,14,000,22,48,11,141,28*49
$GPRMC,145116.000,A,6429.9678,N,16525.7383,W,6.56,212.79,120610,,,D*72
$GPVTG,212.79,T,,M,6.56,N,12.16,K,D*06
$GPGGA,145117.000,6429.9665,N,16525.7410,W,2,9,0.89,-4.9,M,7.8,M,0000,0000*5F
EPOCH
1276354278
$GPGSV,3,1,11,11,60,250,30,14,47,093,18,32,44,216,36,19,26,179,37*7A
$GPGSV,3,2,11,28,23,281,31,22,21,070,22,20,20,233,25,17,20,317,31*78
$GPGSV,3,3,11,09,17,009,24,27,14,000,22,48,11,141,28*4B
$GPRMC,145117.000,A,6429.9665,N,16525.7410,W,6.65,214.51,120610,,,D*7E
$GPVTG,214.51,T,,M,6.65,N,12.32,K,D*0C
$GPGGA,145118.000,6429.9651,N,16525.7437,W,2,9,0.89,-6.9,M,7.8,M,0000,0000*50
$GPGSA,A,3,22,28,20,17,19,32,09,27,11,,,,2.22,0.89,2.03*0B
$GPGSV,3,1,11,11,60,250,30,14,47,093,18,32,44,216,36,19,26,179,38*75
$GPGSV,3,2,11,28,23,281,31,22,21,070,22,20,20,233,27,17,20,317,31*7A
$GPGSV,3,3,11,09,17,009,23,27,14,000,22,48,11,141,29*4D
$GPRMC,145118.000,A,6429.9651,N,16525.7437,W,6.85,215.28,120610,,,D*72
$GPVTG,215.28,T,,M,6.85,N,12.70,K,D*0B
EPOCH
1276354280
$GPGSA,A,3,22,28,20,17,19,32,09,27,11,,,,1.24,0.85,0.90*0A
$GPGSV,3,1,11,11,60,250,29,14,47,093,17,32,44,216,36,19,26,179,39*73
$GPGSV,3,2,11,28,23,281,32,22,21,070,22,20,20,233,29,17,20,317,31*77
$GPGSV,3,3,11,09,17,009,24,27,14,000,22,48,11,141,29*4A
$GPRMC,145119.000,A,6429.9636,N,16525.7460,W,6.50,214.13,120610,,,D*71
$GPVTG,214.13,T,,M,6.50,N,12.04,K,D*09
$GPGGA,145120.000,6429.9621,N,16525.7484,W,2,9,0.90,-8.6,M,7.8,M,0000,0000*5D
$GPGSA,A,3,22,28,20,17,19,32,09,27,11,,,,2.22,0.90,2.03*03
$GPGSV,3,1,11,11,60,250,27,14,47,093,16,32,44,216,36,19,26,179,39*7C
$GPGSV,3,2,11,28,23,281,32,22,21,070,22,20,20,233,30,17,20,317,31*7F
$GPGSV,3,3,11,09,17,009,24,27,14,000,21,48,11,141,30*41
$GPRMC,145120.000,A,6429.9621,N,16525.7484,W,6.28,212.82,120610,,,D*76
EPOCH
1276354281
$GPGGA,145121.000,6429.9609,N,16525.7505,W,2,9,0.89,-8.9,M,7.8,M,0000,0000*59
$GPGSA,A,3,22,28,20,17,19,32,09,27,11,,,,2.22,0.89,2.03*0B
$GPGSV,3,1,11,11,60,250,28,14,47,093,15,32,44,216,36,19,26,179,39*70
$GPGSV,3,2,11,28,23,281,33,22,21,070,21,20,20,233,30,17,20,317,32*7E
$GPGSV,3,3,11,09,17,009,25,27,14,000,20,48,11,141,31*40
$GPRMC,145121.000,A,6429.9609,N,16525.7505,W,6.55,213.38,120610,,,D*7F
$GPVTG,213.38,T,,M,6.55,N,12.14,K,D*03
$GPGGA,145122.000,6429.9596,N,16525.7524,W,2,8,0.92,-9.4,M,7.8,M,0000,0000*5B
$GPGSA,A,3,22,28,20,17,19,32,09,11,,,,,2.25,0.92,2.05*05
$GPGSV,3,1,11,11,60,250,28,14,47,093,15,32,44,216,36,19,26,179,39*70
$GPGSV,3,2,11,28,23,281,33,22,21,070,21,20,20,233,30,17,20,317,30*7C
$GPGSV,3,3,11,09,17,009,25,27,14,000,18,48,11,141,31*4B
EPOCH
1276354283
$GPVTG,213.46,T,,M,6.48,N,12.01,K,D*02
$GPGGA,145123.000,6429.9581,N,16525.7544,W,2,9,0.89,-9.4,M,7.8,M,0000,0000*51
$GPGSA,A,3,22,28,20,17,19,32,09,27,11,,,,2.21,0.89,2.03*08
$GPGSV,3,1,11,11,60,250,28,14,47,093,16,32,44,216,36,19,26,179,39*73
$GPGSV,3,2,11,28,23,281,32,22,21,070,21,20,20,233,30,17,20,317,31*7C
$GPGSV,3,3,11,09,17,009,25,27,14,000,19,48,11,141,31*4A
$GPRMC,145123.000,A,6429.9581,N,16525.7544,W,6.49,214.27,120610,,,D*7F
$GPVTG,214.27,T,,M,6.49,N,12.03,K,D*01
$GPGGA,145124.000,6429.9566,N,16525.7564,W,2,10,0.83,-10.2,M,7.8,M,0000,0000*51
$GPGSA,A,3,22,14,28,20,17,19,32,09,27,11,,,1.97,0.83,1.79*07
$GPGSV,3,1,11,11,60,250,28,14,47,093,17,32,44,216,36,19,26,179,39*72
$GPGSV,3,2,11,28,23,281,32,22,21,070,22,20,20,233,29,17,20,317,31*77
EPOCH
1276354285
$GPRMC,145124.000,A,6429.9566,N,16525.7564,W,6.24,214.82,120610,,,D*77
$GPVTG,214.82,T,,M,6.24,N,11.56,K,D*06
$GPGGA,145125.000,6429.9550,N,16525.7577,W,2,10,0.83,-11.3,M,7.8,M,0000,0000*57
$GPGSA,A,3,22,14,28,20,17,19,32,09,27,11,,,1.97,0.83,1.79*07
$GPGSV,3,1,11,11,60,250,29,14,47,093,28,32,44,216,37,19,26,179,39*7E
$GPGSV,3,2,11,28,23,281,32,22,21,070,22,20,20,233,30,17,20,317,30*7E
$GPGSV,3,3,11,09,17,009,24,27,14,000,20,48,11,141,30*40
$GPRMC,145125.000,A,6429.9550,N,16525.7577,W,6.27,212.57,120610,,,D*7C
$GPVTG,212.57,T,,M,6.27,N,11.61,K,D*0F
$GPGGA,145126.000,6429.9535,N,16525.7591,W,2,10,0.83,-10.7,M,7.8,M,0000,0000*5A
$GPGSA,A,3,22,14,28,20,17,19,32,09,27,11,,,1.97,0.83,1.79*07
$GPGSV,3,1,11,11,60,250,29,14,47,093,27,32,44,216,38,19,26,179,38*7F
EPOCH
1276354287
$GPGSV,3,3,11,09,17,009,23,27,14,000,22,48,11,141,30*45
$GPRMC,145126.000,A,6429.9535,N,16525.7591,W,6.27,213.22,120610,,,D*77
$GPVTG,213.22,T,,M,6.27,N,11.61,K,D*0C
$GPGGA,145127.000,6429.9521,N,16525.7602,W,2,10,0.83,-10.8,M,7.8,M,0000,0000*58
$GPGSA,A,3,22,14,28,20,17,19,32,09,27,11,,,1.97,0.83,1.79*07
$GPGSV,3,1,11,11,60,250,28,14,47,093,27,32,44,216,38,19,26,179,38*7E
$GPGSV,3,2,11,28,23,281,25,22,21,070,22,20,20,233,30,17,20,317,19*73
$GPGSV,3,3,11,09,17,009,24,27,14,000,23,48,11,141,29*4B
$GPRMC,145127.000,A,6429.9521,N,16525.7602,W,6.34,211.80,120610,,,D*72
$GPVTG,211.80,T,,M,6.34,N,11.74,K,D*00
$GPGGA,145128.000,6429.9506,N,16525.7622,W,2,9,0.88,-12.2,M,7.8,M,0000,0000*6B
$GPGSA,A,3,22,14,20,17,19,32,09,27,11,,,,2.00,0.88,1.80*0D
EPOCH
1276354289
$GPGSV,3,2,11,28,23,281,15,22,21,070,22,20,20,233,31,17,20,317,21*7A
$GPGSV,3,3,11,09,17,009,26,27,14,000,24,48,11,141,29*4E
$GPRMC,145128.000,A,6429.9506,N,16525.7622,W,6.32,212.45,120610,,,D*76
$GPVTG,212.45,T,,M,6.32,N,11.71,K,D*09
$GPGGA,145129.000,6429.9489,N,16525.7639,W,2,9,0.88,-13.1,M,7.8,M,0000,0000*64
$GPGSA,A,3,22,14,20,17,19,32,09,27,11,,,,2.00,0.88,1.80*0D
$GPGSV,3,1,11,11,60,250,29,14,47,093,27,32,44,216,38,19,25,179,38*7C
$GPGSV,3,2,11,28,23,281,15,20,21,233,31,22,21,070,22,17,20,317,21*7B
$GPGSV,3,3,11,09,17,009,25,27,14,000,24,48,11,141,28*4C
$GPRMC,145129.000,A,6429.9489,N,16525.7639,W,6.29,211.65,120610,,,D*70
$GPVTG,211.65,T,,M,6.29,N,11.65,K,D*07
$GPGGA,145130.000,6429.9473,N,16525.7656,W,2,10,0.83,-13.8,M,7.8,M,0000,0000*5A
EPOCH
1276354291
$GPGSV,3,1,11,11,60,250,29,14,47,093,26,32,44,216,37,19,25,179,39*73
$GPGSV,3,2,11,28,23,281,31,20,21,233,32,22,21,070,23,17,20,317,20*7E
$GPGSV,3,3,11,09,17,009,25,27,14,000,23,48,11,141,27*44
$GPRMC,145130.000,A,6429.9473,N,16525.7656,W,6.79,213.54,120610,,,D*71
$GPVTG,213.54,T,,M,6.79,N,12.58,K,D*0F
$GPGGA,145131.000,6429.9457,N,16525.7671,W,2,9,0.85,-13.5,M,7.8,M,0000,0000*6B
$GPGSA,A,3,22,28,20,17,19,32,09,27,11,,,,1.24,0.85,0.90*0A
$GPGSV,3,1,11,11,60,250,29,14,47,093,17,32,44,216,36,19,25,179,39*70
$GPGSV,3,2,11,28,23,281,29,20,21,233,34,22,21,070,24,17,20,317,20*76
$GPGSV,3,3,11,09,17,009,24,27,14,000,22,48,11,141,26*45
$GPRMC,145131.000,A,6429.9457,N,16525.7671,W,6.74,213.31,120610,,,D*7D
$GPVTG,213.31,T,,M,6.74,N,12.50,K,D*09
EPOCH
1276354293
$GPGSA,A,3,22,28,20,17,19,32,09,27,11,,,,2.21,0.90,2.02*01
$GPGSV,3,1,11,11,60,250,28,14,47,093,17,32,44,216,35,19,25,179,39*72
$GPGSV,3,2,11,28,23,281,31,20,21,233,35,22,21,070,25,17,20,317,19*75
$GPGSV,3,3,11,09,17,009,23,27,14,000,22,48,11,141,26*42
$GPRMC,145132.000,A,6429.9442,N,16525.7689,W,6.54,216.06,120610,,,D*7E
$GPVTG,216.06,T,,M,6.54,N,12.11,K,D*0F
$GPGGA,145133.000,6429.9426,N,16525.7709,W,2,8,0.96,-14.5,M,7.8,M,0000,0000*65
$GPGSA,A,3,22,28,20,19,32,09,27,11,,,,,2.25,0.96,2.03*04
$GPGSV,3,1,11,11,60,250,26,14,47,093,17,32,44,216,33,19,25,179,39*7A
$GPGSV,3,2,11,28,23,281,32,20,21,233,35,22,21,070,24,17,20,317,18*76
$GPGSV,3,3,11,09,17,009,23,27,14,000,23,48,11,141,26*43
$GPRMC,145133.000,A,6429.9426,N,16525.7709,W,6.80,215.53,120610,,,D*7E
EPOCH
1276354294
$GPGGA,145134.000,6429.9412,N,16525.7722,W,2,8,0.93,-14.2,M,7.8,M,0000,0000*6E
$GPGSA,A,3,22,28,20,17,19,32,27,11,,,,,2.23,0.93,2.02*09
$GPGSV,3,1,11,11,60,250,26,14,47,093,18,32,44,216,33,19,25,179,39*75
$GPGSV,3,2,11,28,23,281,31,20,21,233,35,22,21,070,24,17,20,317,18*75
$GPGSV,3,3,11,09,17,009,16,27,14,000,23,48,11,141,25*46
$GPRMC,145134.000,A,6429.9412,N,16525.7722,W,6.45,217.14,120610,,,D*7F
$GPVTG,217.14,T,,M,6.45,N,11.95,K,D*02
$GPGGA,145135.000,6429.9399,N,16525.7738,W,2,8,0.96,-13.8,M,7.8,M,0000,0000*68
$GPGSA,A,3,22,28,20,19,32,09,27,11,,,,,2.24,0.96,2.03*05
$GPGSV,3,1,11,11,60,250,27,14,47,093,17,32,44,216,34,19,25,179,39*7C
$GPGSV,3,2,11,28,23,281,30,20,21,233,35,22,21,070,24,17,20,317,17*7B
$GPGSV,3,3,11,09,17,009,16,27,14,000,22,48,11,141,25*47
EPOCH
1276354296
$GPVTG,217.06,T,,M,6.84,N,12.68,K,D*0D
$GPGGA,145136.000,6429.9386,N,16525.7746,W,2,9,0.89,-13.6,M,7.8,M,0000,0000*6D
$GPGSA,A,3,22,14,28,20,19,32,09,27,11,,,,2.00,0.89,1.79*06
$GPGSV,3,1,11,11,60,250,27,14,47,093,19,32,44,216,35,19,25,179,39*73
$GPGSV,3,2,11,28,23,281,28,20,21,233,35,22,21,070,24,17,20,317,16*73
$GPGSV,3,3,11,09,17,009,24,27,14,000,20,48,11,141,25*44
$GPRMC,145136.000,A,6429.9386,N,16525.7746,W,6.63,214.21,120610,,,D*74
$GPVTG,214.21,T,,M,6.63,N,12.29,K,D*07
$GPGGA,145137.000,6429.9372,N,16525.7761,W,2,10,0.83,-14.1,M,7.8,M,0000,0000*50
$GPGSA,A,3,22,14,28,20,17,19,32,09,27,11,,,1.97,0.83,1.79*07
$GPGSV,3,1,11,11,60,250,28,14,47,093,21,32,44,216,36,19,25,179,37*7A
$GPGSV,3,2,11,28,22,281,27,20,21,233,34,22,21,070,24,17,20,317,24*7D
EPOCH
1276354298
$GPRMC,145137.000,A,6429.9372,N,16525.7761,W,6.56,217.66,120610,,,D*7D
$GPVTG,217.66,T,,M,6.56,N,12.15,K,D*0E
$GPGGA,145138.000,6429.9358,N,16525.7786,W,2,10,0.83,-14.4,M,7.8,M,0000,0000*5B
$GPGSA,A,3,22,14,28,20,17,19,32,09,27,11,,,1.97,0.83,1.79*07
$GPGSV,3,1,11,11,60,250,27,14,47,093,23,32,44,216,36,19,25,179,37*77
$GPGSV,3,2,11,28,22,281,27,20,21,233,32,22,21,070,24,17,20,317,25*7A
$GPGSV,3,3,11,09,17,009,26,27,14,000,26,48,11,141,26*43
$GPRMC,145138.000,A,6429.9358,N,16525.7786,W,6.37,215.89,120610,,,D*77
$GPVTG,215.89,T,,M,6.37,N,11.80,K,D*05
$GPGGA,145139.000,6429.9344,N,16525.7814,W,2,9,0.89,-16.0,M,7.8,M,0000,0000*67
$GPGSA,A,3,22,28,20,17,19,32,09,27,11,,,,2.21,0.89,2.02*09
$GPGSV,3,1,11,11,60,250,28,14,47,093,21,32,44,216,36,19,25,179,38*75
EPOCH
1276354300
$GPGSV,3,3,11,09,17,009,26,27,14,000,24,48,11,141,28*4F
$GPRMC,145139.000,A,6429.9344,N,16525.7814,W,6.20,212.53,120610,,,D*79
$GPVTG,212.53,T,,M,6.20,N,11.48,K,D*07
$GPGGA,145140.000,6429.9333,N,16525.7844,W,2,10,0.83,-16.5,M,7.8,M,0000,0000*5B
$GPGSA,A,3,22,14,28,20,17,19,32,09,27,11,,,1.97,0.83,1.79*07
$GPGSV,3,1,11,11,60,250,28,14,47,093,22,32,44,216,36,19,25,179,39*77
$GPGSV,3,2,11,28,22,281,27,20,21,233,31,22,21,070,24,17,20,317,29*75
$GPGSV,3,3,11,09,17,009,24,27,14,000,17,48,11,141,29*4C
$GPRMC,145140.000,A,6429.9333,N,16525.7844,W,6.46,213.70,120610,,,D*72
$GPVTG,213.70,T,,M,6.46,N,11.98,K,D*0A
$GPGGA,145141.000,6429.9321,N,16525.7875,W,2,10,0.78,-16.9,M,7.8,M,0000,0000*53
$GPGSA,A,3,22,14,28,20,17,19,32,09,27,11,,,1.17,0.78,0.87*0B
EPOCH
1276354302
$GPGSV,3,2,11,28,22,281,28,20,21,233,29,22,21,070,24,17,20,317,30*7B
$GPGSV,3,3,11,09,17,009,25,27,14,000,18,48,11,141,28*43
$GPRMC,145141.000,A,6429.9321,N,16525.7875,W,6.58,215.31,120610,,,D*7E
$GPVTG,215.31,T,,M,6.58,N,12.19,K,D*0C
$GPGGA,145142.000,6429.9306,N,16525.7898,W,2,10,0.83,-17.4,M,7.8,M,0000,0000*5E
$GPGSA,A,3,22,14,28,20,17,19,32,09,27,11,,,1.97,0.83,1.79*07
$GPGSV,3,1,11,11,60,250,29,14,47,093,22,32,44,216,36,19,25,179,38*77
$GPGSV,3,2,11,28,22,281,29,20,21,233,28,22,21,070,23,17,20,317,30*7C
$GPGSV,3,3,11,09,17,009,26,27,14,000,20,48,11,141,27*44
$GPRMC,145142.000,A,6429.9306,N,16525.7898,W,6.54,215.76,120610,,,D*74
$GPVTG,215.76,T,,M,6.54,N,12.11,K,D*0B
$GPGGA,145143.000,6429.9290,N,16525.7912,W,2,10,0.83,-17.7,M,7.8,M,0000,0000*51
EPOCH
1276354304
$GPGSV,3,1,11,11,60,250,30,14,47,093,24,32,44,216,37,19,25,179,37*77
$GPGSV,3,2,11,28,22,281,27,20,21,233,29,22,21,070,22,17,20,317,23*70
$GPGSV,3,3,11,09,17,009,27,27,14,000,27,48,11,141,27*42
$GPRMC,145143.000,A,6429.9290,N,16525.7912,W,6.19,215.26,120610,,,D*74
$GPVTG,215.26,T,,M,6.19,N,11.46,K,D*06
$GPGGA,145144.000,6429.9274,N,16525.7931,W,2,10,0.83,-17.9,M,7.8,M,0000,0000*53
$GPGSA,A,3,22,14,28,20,17,19,32,09,27,11,,,1.97,0.83,1.79*07
$GPGSV,3,1,11,11,60,250,30,14,47,093,24,32,44,216,36,19,25,179,37*76
$GPGSV,3,2,11,28,22,281,27,20,21,233,31,22,21,070,20,17,20,317,22*7A
$GPGSV,3,3,11,09,17,009,27,27,14,000,25,48,11,141,26*41
$GPRMC,145144.000,A,6429.9274,N,16525.7931,W,6.51,216.65,120610,,,D*70
$GPVTG,216.65,T,,M,6.51,N,12.07,K,D*08
EPOCH
1276354306
$GPGSA,A,3,22,14,28,20,19,32,09,27,11,,,,1.99,0.89,1.78*04
$GPGSV,3,1,11,11,60,250,30,14,47,093,23,32,44,216,36,19,25,179,38*7E
$GPGSV,3,2,11,28,22,281,28,20,21,233,33,22,21,070,20,17,20,317,20*75
$GPGSV,3,3,11,09,17,009,19,27,14,000,18,48,11,141,25*41
$GPRMC,145145.000,A,6429.9260,N,16525.7947,W,6.43,215.44,120610,,,D*76
$GPVTG,215.44,T,,M,6.43,N,11.92,K,D*04
$GPGGA,145146.000,6429.9244,N,16525.7970,W,2,9,0.86,-16.8,M,7.8,M,0000,0000*6A
$GPGSA,A,3,22,14,28,20,17,19,32,09,11,,,,2.01,0.86,1.81*0C
$GPGSV,3,1,11,11,60,250,29,14,47,093,22,32,44,216,36,19,25,179,38*77
$GPGSV,3,2,11,28,22,281,20,20,21,233,34,22,21,070,21,17,20,317,20*7B
$GPGSV,3,3,11,09,17,009,20,27,14,000,17,48,11,141,25*44
$GPRMC,145146.000,A,6429.9244,N,16525.7970,W,6.79,214.45,120610,,,D*7E
EPOCH
1276354307
$GPGGA,145147.000,6429.9231,N,16525.7997,W,2,10,0.83,-16.5,M,7.8,M,0000,0000*50
$GPGSA,A,3,22,14,28,20,17,19,32,09,27,11,,,1.97,0.83,1.78*06
$GPGSV,3,1,11,11,60,250,30,14,47,093,22,32,44,216,36,19,25,179,38*7F
$GPGSV,3,2,11,28,22,281,30,20,21,233,34,22,21,070,21,17,20,317,19*70
$GPGSV,3,3,11,09,17,009,22,27,14,000,17,48,11,141,25*46
$GPRMC,145147.000,A,6429.9231,N,16525.7997,W,6.97,214.02,120610,,,D*77
$GPVTG,214.02,T,,M,6.97,N,12.91,K,D*0E
$GPGGA,145148.000,6429.9215,N,16525.8016,W,2,10,0.83,-17.0,M,7.8,M,0000,0000*52
$GPGSA,A,3,22,14,28,20,17,19,32,09,27,11,,,1.97,0.83,1.78*06
$GPGSV,3,1,11,11,60,250,29,14,47,093,23,32,44,216,37,19,25,179,37*78
$GPGSV,3,2,11,28,22,281,21,20,21,233,34,22,21,070,20,17,20,317,21*7A
$GPGSV,3,3,11,09,17,009,24,27,14,000,17,48,11,141,24*41
EPOCH
1276354309
$GPVTG,213.66,T,,M,6.71,N,12.43,K,D*0C
$GPGGA,145149.000,6429.9200,N,16525.8036,W,2,10,0.83,-17.0,M,7.8,M,0000,0000*55
$GPGSA,A,3,22,14,28,20,17,19,32,09,27,11,,,1.97,0.83,1.78*06
$GPGSV,3,1,11,11,60,250,30,14,47,093,23,32,44,216,37,19,25,179,36*71
$GPGSV,3,2,11,28,22,281,23,20,21,233,32,22,21,070,21,17,20,317,21*7F
$GPGSV,3,3,11,09,17,009,23,27,14,000,26,48,11,141,24*44
$GPRMC,145149.000,A,6429.9200,N,16525.8036,W,6.18,214.72,120610,,,D*76
$GPVTG,214.72,T,,M,6.18,N,11.46,K,D*07
$GPGGA,145150.000,6429.9185,N,16525.8050,W,2,10,0.83,-17.2,M,7.8,M,0000,0000*51
$GPGSA,A,3,22,14,28,20,17,19,32,09,27,11,,,1.97,0.83,1.78*06
$GPGSV,3,1,11,11,60,250,30,14,47,093,24,32,44,216,37,19,25,179,34*74
$GPGSV,3,2,11,28,22,281,22,20,21,233,30,22,21,070,22,17,20,317,21*7F
EPOCH
1276354311
$GPRMC,145150.000,A,6429.9185,N,16525.8050,W,6.07,212.12,120610,,,D*7E
$GPVTG,212.12,T,,M,6.07,N,11.26,K,D*0F
$GPGGA,145151.000,6429.9169,N,16525.8058,W,2,10,0.83,-17.7,M,7.8,M,0000,0000*5F
$GPGSA,A,3,22,14,28,20,17,19,32,09,27,11,,,1.97,0.83,1.78*06
$GPGSV,3,1,11,11,60,250,30,14,47,093,25,32,44,216,37,19,25,179,34*75
$GPGSV,3,2,11,28,22,281,21,20,21,233,30,22,21,070,23,17,20,317,22*7E
$GPGSV,3,3,11,09,17,009,23,27,14,000,22,48,11,141,27*43
$GPRMC,145151.000,A,6429.9169,N,16525.8058,W,6.06,211.50,120610,,,D*71
$GPVTG,211.50,T,,M,6.06,N,11.22,K,D*0F
$GPGGA,145152.000,6429.9154,N,16525.8070,W,2,10,0.83,-18.9,M,7.8,M,0000,0000*59
$GPGSA,A,3,22,14,28,20,17,19,32,09,27,11,,,1.97,0.83,1.78*06
$GPGSV,3,1,11,11,61,250,31,14,47,093,23,32,44,216,37,19,25,179,35*72
EPOCH
1276354313
$GPGSV,3,3,11,09,17,009,23,27,14,000,21,48,11,141,27*40
$GPRMC,145152.000,A,6429.9154,N,16525.8070,W,6.18,209.61,120610,,,D*72
$GPVTG,209.61,T,,M,6.18,N,11.45,K,D*0A
$GPGGA,145153.000,6429.9140,N,16525.8083,W,2,9,0.90,-19.0,M,7.8,M,0000,0000*63
$GPGSA,A,3,22,28,20,17,19,32,09,27,11,,,,2.21,0.90,2.02*01
$GPGSV,3,1,11,11,61,250,31,14,47,093,21,32,44,216,37,19,25,179,36*73
$GPGSV,3,2,11,28,22,281,21,20,21,233,31,22,21,070,24,17,20,317,21*7B
$GPGSV,3,3,11,09,17,009,23,27,14,000,20,48,11,141,26*40
$GPRMC,145153.000,A,6429.9140,N,16525.8083,W,6.52,212.23,120610,,,D*78
$GPVTG,212.23,T,,M,6.52,N,12.08,K,D*02
$GPGGA,145154.000,6429.9125,N,16525.8102,W,2,8,0.92,-18.9,M,7.8,M,0000,0000*64
$GPGSA,A,3,22,28,20,19,32,09,27,11,,,,,1.29,0.92,0.90*07
EPOCH
1276354315
$GPGSV,3,2,11,28,22,281,21,20,21,233,38,22,21,070,25,17,20,317,20*72
$GPGSV,3,3,11,09,17,009,23,27,14,000,19,48,11,141,26*4A
$GPRMC,145154.000,A,6429.9125,N,16525.8102,W,6.69,213.44,120610,,,D*7C
$GPVTG,213.44,T,,M,6.69,N,12.40,K,D*06
$GPGGA,145155.000,6429.9109,N,16525.8127,W,2,8,0.95,-18.5,M,7.8,M,0000,0000*67
$GPGSA,A,3,22,28,20,17,19,32,09,27,,,,,3.75,0.95,3.63*02
$GPGSV,3,1,11,11,61,250,18,14,47,092,19,32,44,216,29,19,25,179,38*73
$GPGSV,3,2,11,28,22,281,23,20,21,233,37,22,21,070,26,17,20,317,21*7D
$GPGSV,3,3,11,09,17,009,22,27,14,000,18,48,11,141,27*4B
$GPRMC,145155.000,A,6429.9109,N,16525.8127,W,6.41,213.53,120610,,,D*78
$GPVTG,213.53,T,,M,6.41,N,11.88,K,D*0D
$GPGGA,145156.000,6429.9095,N,16525.8148,W,2,9,0.88,-18.0,M,7.8,M,0000,0000*61
EPOCH
1276354317
$GPGSV,3,1,11,11,61,250,18,14,47,092,21,32,44,216,30,19,25,179,38*70
$GPGSV,3,2,11,28,22,281,24,20,21,233,35,22,21,070,25,17,20,317,23*79
$GPGSV,3,3,11,09,17,009,23,27,14,000,19,48,11,141,27*4B
$GPRMC,145156.000,A,6429.9095,N,16525.8148,W,6.51,215.01,120610,,,D*76
$GPVTG,215.01,T,,M,6.51,N,12.07,K,D*09
$GPGGA,145157.000,6429.9079,N,16525.8172,W,2,10,0.78,-17.3,M,7.8,M,0000,0000*50
$GPGSA,A,3,22,14,28,20,17,19,32,09,27,11,,,1.17,0.78,0.87*0B
$GPGSV,3,1,11,11,61,250,18,14,47,092,22,32,44,216,30,19,25,179,37*7C
$GPGSV,3,2,11,28,22,281,26,20,21,233,33,22,21,070,24,17,20,317,30*7E
$GPGSV,3,3,11,09,17,009,22,27,14,000,21,48,11,141,27*41
$GPRMC,145157.000,A,6429.9079,N,16525.8172,W,6.25,214.17,120610,,,D*79
$GPVTG,214.17,T,,M,6.25,N,11.58,K,D*05
EPOCH
1276354319
$GPGSA,A,3,22,14,28,20,17,19,32,09,27,11,,,1.96,0.83,1.78*07
$GPGSV,3,1,11,11,61,250,20,14,47,092,22,32,44,216,30,19,25,179,36*76
$GPGSV,3,2,11,28,22,281,27,20,21,233,33,22,21,070,22,17,20,317,30*79
$GPGSV,3,3,11,09,17,009,22,27,14,000,23,48,11,141,26*42
$GPRMC,145158.000,A,6429.9065,N,16525.8204,W,6.69,218.47,120610,,,D*78
$GPVTG,218.47,T,,M,6.69,N,12.39,K,D*00
$GPGGA,145159.000,6429.9052,N,16525.8240,W,2,10,0.83,-17.0,M,7.8,M,0000,0000*52
$GPGSA,A,3,22,14,28,20,17,19,32,09,27,11,,,1.96,0.83,1.78*07
$GPGSV,3,1,11,11,61,250,21,14,47,092,22,32,44,216,31,19,25,179,36*76
$GPGSV,3,2,11,28,22,281,28,20,21,233,33,22,21,070,22,17,20,317,29*7E
$GPGSV,3,3,11,09,17,009,22,27,14,000,23,48,11,141,25*41
$GPRMC,145159.000,A,6429.9052,N,16525.8240,W,6.48,220.47,120610,,,D*75
EPOCH
1276354320
$GPGGA,145200.000,6429.9038,N,16525.8259,W,2,10,0.83,-16.9,M,7.8,M,0000,0000*51
$GPGSA,A,3,22,14,28,20,17,19,32,09,27,11,,,1.96,0.83,1.78*07
$GPGSV,3,1,11,11,61,250,22,14,47,092,21,32,44,216,32,19,25,179,37*74
$GPGSV,3,2,11,28,22,281,26,20,21,233,34,22,21,070,22,17,20,317,28*76
$GPGSV,3,3,11,09,17,009,22,27,14,000,23,48,11,141,25*41
$GPRMC,145200.000,A,6429.9038,N,16525.8259,W,6.40,218.84,120610,,,D*72
$GPVTG,218.84,T,,M,6.40,N,11.87,K,D*02
$GPGGA,145201.000,6429.9027,N,16525.8279,W,2,8,0.93,-16.5,M,7.8,M,0000,0000*68
$GPGSA,A,3,22,28,20,17,19,32,27,11,,,,,2.22,0.93,2.02*08
$GPGSV,3,1,11,11,61,250,22,14,47,092,19,32,44,216,33,19,25,179,38*71
$GPGSV,3,2,11,28,22,281,24,20,21,233,35,22,21,070,24,17,20,317,28*73
$GPGSV,3,3,11,09,17,009,21,27,14,000,21,48,11,141,26*43
EPOCH
1276354322
$GPVTG,216.72,T,,M,6.76,N,12.52,K,D*0B
$GPGGA,145202.000,6429.9015,N,16525.8303,W,2,9,0.90,-15.6,M,7.8,M,0000,0000*64
$GPGSA,A,3,22,28,20,17,19,32,09,27,11,,,,2.21,0.90,2.02*01
$GPGSV,3,1,11,11,61,250,30,14,47,092,18,32,44,216,34,19,25,179,39*75
$GPGSV,3,2,11,28,22,281,24,20,21,233,35,22,21,070,25,17,20,317,27*7D
$GPGSV,3,3,11,09,17,009,21,27,14,000,20,48,11,141,27*43
$GPRMC,145202.000,A,6429.9015,N,16525.8303,W,6.26,215.51,120610,,,D*74
$GPVTG,215.51,T,,M,6.26,N,11.61,K,D*0F
$GPGGA,145203.000,6429.8999,N,16525.8328,W,2,8,0.96,-16.0,M,7.8,M,0000,0000*62
$GPGSA,A,3,22,28,20,19,32,09,27,11,,,,,2.24,0.96,2.02*04
$GPGSV,3,1,11,11,61,250,30,14,47,092,17,32,44,216,35,19,25,179,37*75
$GPGSV,3,2,11,28,22,281,25,20,21,233,34,22,20,070,25,17,20,317,*79
EPOCH
1276354324
$GPRMC,145203.000,A,6429.8999,N,16525.8328,W,6.53,212.87,120610,,,D*7E
$GPVTG,212.87,T,,M,6.53,N,12.10,K,D*04
$GPGGA,145204.000,6429.8985,N,16525.8346,W,2,10,0.83,-15.7,M,7.8,M,0000,0000*59
$GPGSA,A,3,22,14,28,20,17,19,32,09,27,11,,,1.96,0.83,1.78*07
$GPGSV,3,1,11,11,61,250,30,14,47,092,25,32,44,216,36,19,25,179,35*75
$GPGSV,3,2,11,28,22,281,25,20,21,233,33,22,20,070,25,17,20,317,23*7F
$GPGSV,3,3,11,09,17,009,22,47,16,198,,27,14,000,20*49
$GPRMC,145204.000,A,6429.8985,N,16525.8346,W,6.08,214.29,120610,,,D*70
$GPVTG,214.29,T,,M,6.08,N,11.26,K,D*0E
$GPGGA,145205.000,6429.8970,N,16525.8372,W,2,9,0.89,-16.0,M,7.8,M,0000,0000*63
$GPGSA,A,3,22,14,28,20,19,32,09,27,11,,,,1.99,0.89,1.78*04
$GPGSV,3,1,11,11,61,250,30,14,47,092,26,32,44,216,37,19,25,179,33*71
EPOCH
1276354326
$GPGSV,3,3,11,09,17,009,23,47,16,198,,27,14,000,21*49
$GPRMC,145205.000,A,6429.8970,N,16525.8372,W,6.36,216.26,120610,,,D*7C
$GPVTG,216.26,T,,M,6.36,N,11.78,K,D*05
$GPGGA,145206.000,6429.8956,N,16525.8391,W,2,9,0.89,-15.6,M,7.8,M,0000,0000*6C
$GPGSA,A,3,22,14,28,20,19,32,09,27,11,,,,1.99,0.89,1.78*04
$GPGSV,3,1,11,11,61,250,30,14,47,092,26,32,44,216,38,19,25,179,33*7E
$GPGSV,3,2,11,28,22,281,26,20,21,233,30,22,20,070,25,17,20,317,17*78
$GPGSV,3,3,11,09,17,009,23,47,16,198,,27,14,000,22*4A
$GPRMC,145206.000,A,6429.8956,N,16525.8391,W,6.37,211.13,120610,,,D*76
$GPVTG,211.13,T,,M,6.37,N,11.80,K,D*02
$GPGGA,145207.000,6429.8943,N,16525.8413,W,2,9,0.89,-14.6,M,7.8,M,0000,0000*65
$GPGSA,A,3,22,14,28,20,19,32,09,27,11,,,,1.99,0.89,1.78*04
EPOCH
1276354328
$GPGSV,3,2,11,28,22,281,19,20,21,233,29,22,20,070,25,17,20,317,20*78
$GPGSV,3,3,11,09,17,009,24,47,16,198,,27,14,000,23*4C
$GPRMC,145207.000,A,6429.8943,N,16525.8413,W,6.56,212.49,120610,,,D*75
$GPVTG,212.49,T,,M,6.56,N,12.15,K,D*06
$GPGGA,145208.000,6429.8933,N,16525.8442,W,2,10,0.78,-13.3,M,7.8,M,0000,0000*5D
$GPGSA,A,3,22,14,28,20,17,19,32,09,27,11,,,1.17,0.78,0.87*0B
$GPGSV,3,1,11,11,61,250,29,14,47,092,24,32,44,216,37,19,25,179,35*7D
$GPGSV,3,2,11,28,22,281,21,20,21,233,29,22,20,070,24,17,20,317,32*71
$GPGSV,3,3,11,09,17,009,25,47,16,198,,27,14,000,21*4F
$GPRMC,145208.000,A,6429.8933,N,16525.8442,W,6.34,212.81,120610,,,D*79
$GPVTG,212.81,T,,M,6.34,N,11.75,K,D*03
$GPGGA,145209.000,6429.8919,N,16525.8466,W,2,10,0.83,-13.3,M,7.8,M,0000,0000*56
EPOCH
1276354330
$GPGSV,3,1,11,11,61,250,29,14,47,092,23,32,44,216,37,19,25,179,36*79
$GPGSV,3,2,11,28,22,281,20,20,21,233,29,22,20,070,23,17,20,317,31*74
$GPGSV,3,3,11,09,17,009,26,47,16,198,,27,14,000,20*4D
$GPRMC,145209.000,A,6429.8919,N,16525.8466,W,6.19,212.77,120610,,,D*70
$GPVTG,212.77,T,,M,6.19,N,11.46,K,D*05
$GPGGA,145210.000,6429.8906,N,16525.8489,W,2,9,0.90,-12.5,M,7.8,M,0000,0000*6C
$GPGSA,A,3,22,28,20,17,19,32,09,27,11,,,,2.20,0.90,2.01*03
$GPGSV,3,1,11,11,61,250,29,14,47,092,16,32,44,216,36,19,25,179,36*7E
$GPGSV,3,2,11,28,22,281,27,20,21,233,29,22,20,070,23,17,20,317,31*73
$GPGSV,3,3,11,09,17,009,26,47,16,198,,27,14,000,19*47
$GPRMC,145210.000,A,6429.8906,N,16525.8489,W,6.21,213.30,120610,,,D*7E
$GPVTG,213.30,T,,M,6.21,N,11.52,K,D*09
EPOCH
1276354332
$GPGSA,A,3,22,28,20,17,19,32,09,27,11,,,,2.20,0.89,2.01*0B
$GPGSV,3,1,11,11,61,250,29,14,47,092,16,32,44,216,35,19,25,179,36*7D
$GPGSV,3,2,11,28,22,281,28,20,21,233,29,22,20,070,23,17,20,317,32*7F
$GPGSV,3,3,11,09,17,009,26,47,16,198,,27,14,000,19*47
$GPRMC,145211.000,A,6429.8894,N,16525.8518,W,6.23,213.24,120610,,,D*7B
$GPVTG,213.24,T,,M,6.23,N,11.55,K,D*09
$GPGGA,145212.000,6429.8881,N,16525.8535,W,2,9,0.90,-10.9,M,7.8,M,0000,0000*68
$GPGSA,A,3,22,28,20,17,19,32,09,27,11,,,,2.20,0.90,2.01*03
$GPGSV,3,1,11,11,61,250,27,14,47,092,16,32,44,216,34,19,25,179,36*72
$GPGSV,3,2,11,28,22,281,28,20,21,233,29,22,20,070,23,17,20,317,33*7E
$GPGSV,3,3,11,09,17,009,27,47,16,198,,27,14,000,18*47
$GPRMC,145212.000,A,6429.8881,N,16525.8535,W,5.80,211.44,120610,,,D*7D
EPOCH
1276354333
$GPGGA,145213.000,6429.8868,N,16525.8557,W,2,9,0.85,-9.5,M,7.8,M,0000,0000*5A
$GPGSA,A,3,22,28,20,17,19,32,09,27,11,,,,1.24,0.85,0.90*0A
$GPGSV,3,1,11,11,61,250,26,14,47,092,16,32,45,216,34,19,25,179,36*72
$GPGSV,3,2,11,28,22,281,29,20,21,233,28,22,20,070,23,17,20,317,34*79
$GPGSV,3,3,11,09,17,009,27,47,16,198,,27,14,000,18*47
$GPRMC,145213.000,A,6429.8868,N,16525.8557,W,6.14,211.51,120610,,,D*75
$GPVTG,211.51,T,,M,6.14,N,11.38,K,D*06
$GPGGA,145214.000,6429.8853,N,16525.8571,W,2,9,0.89,-7.8,M,7.8,M,0000,0000*5E
$GPGSA,A,3,22,28,20,17,19,32,09,27,11,,,,2.20,0.89,2.01*0B
$GPGSV,3,1,11,11,61,250,26,14,47,092,16,32,45,216,33,19,25,179,36*75
$GPGSV,3,2,11,28,22,281,29,20,21,233,29,22,20,070,23,17,20,317,35*79
$GPGSV,3,3,11,09,17,009,27,47,16,198,,27,14,000,19*46
EPOCH
1276354335
$GPVTG,214.74,T,,M,6.60,N,12.23,K,D*0E
$GPGGA,145215.000,6429.8840,N,16525.8605,W,2,9,0.89,-7.1,M,7.8,M,0000,0000*54
$GPGSA,A,3,22,28,20,17,19,32,09,27,11,,,,2.20,0.89,2.01*0B
$GPGSV,3,1,11,11,61,250,26,14,47,092,15,32,45,216,32,19,25,179,36*77
$GPGSV,3,2,11,28,22,281,29,20,21,233,30,22,20,070,21,17,20,317,35*73
$GPGSV,3,3,11,09,17,009,26,27,14,000,18,35,14,154,*41
$GPRMC,145215.000,A,6429.8840,N,16525.8605,W,6.66,215.65,120610,,,D*7B
$GPVTG,215.65,T,,M,6.66,N,12.34,K,D*0F
$GPGGA,145216.000,6429.8825,N,16525.8629,W,2,8,1.13,-6.2,M,7.8,M,0000,0000*5B
$GPGSA,A,3,28,20,17,19,32,09,27,11,,,,,1.45,1.13,0.90*03
$GPGSV,3,1,11,11,61,250,26,14,47,092,16,32,45,216,31,19,25,179,36*77
$GPGSV,3,2,11,28,22,281,30,20,21,233,30,22,20,070,19,17,20,317,35*70
EPOCH
1276354337
$GPRMC,145216.000,A,6429.8825,N,16525.8629,W,6.54,211.86,120610,,,D*7D
$GPVTG,211.86,T,,M,6.54,N,12.12,K,D*03
$GPGGA,145217.000,6429.8811,N,16525.8653,W,2,9,0.89,-5.2,M,7.8,M,0000,0000*50
$GPGSA,A,3,22,28,20,17,19,32,09,27,11,,,,2.20,0.89,2.01*0B
$GPGSV,3,1,11,11,61,250,26,14,47,092,16,32,45,216,31,19,25,179,36*77
$GPGSV,3,2,11,28,22,281,31,20,21,233,30,22,20,070,18,17,20,317,35*70
$GPGSV,3,3,11,09,17,009,23,27,14,000,17,35,14,154,*4B
$GPRMC,145217.000,A,6429.8811,N,16525.8653,W,6.49,214.10,120610,,,D*70
$GPVTG,214.10,T,,M,6.49,N,12.03,K,D*05
$GPGGA,145218.000,6429.8796,N,16525.8684,W,2,10,0.83,-4.9,M,7.8,M,0000,0000*6D
$GPGSA,A,3,22,14,28,20,17,19,32,09,27,11,,,1.96,0.83,1.77*08
$GPGSV,3,1,11,11,61,250,27,14,47,092,24,32,45,216,32,19,25,179,36*74
EPOCH
1276354339
$GPGSV,3,3,11,09,17,009,22,27,14,000,17,35,14,154,*4A
$GPRMC,145218.000,A,6429.8796,N,16525.8684,W,6.58,212.55,120610,,,D*72
$GPVTG,212.55,T,,M,6.58,N,12.19,K,D*09
$GPGGA,145219.000,6429.8782,N,16525.8708,W,2,9,0.95,-4.5,M,7.8,M,0000,0000*5F
$GPGSA,A,3,14,28,20,17,19,32,09,27,11,,,,2.08,0.95,1.85*06
$GPGSV,3,1,11,11,61,250,28,14,47,092,25,32,45,216,33,19,25,179,35*78
$GPGSV,3,2,11,28,22,281,32,20,21,233,28,22,20,070,17,17,20,317,36*76
$GPGSV,3,3,11,09,17,009,21,27,14,000,18,35,14,154,*46
$GPRMC,145219.000,A,6429.8782,N,16525.8708,W,6.45,214.77,120610,,,D*79
$GPVTG,214.77,T,,M,6.45,N,11.96,K,D*07
$GPGGA,145220.000,6429.8768,N,16525.8738,W,2,10,0.83,-3.8,M,7.8,M,0000,0000*67
$GPGSA,A,3,22,14,28,20,17,19,32,09,27,11,,,1.96,0.83,1.77*08
EPOCH
1276354341
$GPGSV,3,2,11,28,22,281,32,20,21,233,28,22,20,070,17,17,20,317,35*75
$GPGSV,3,3,11,09,17,009,20,27,14,000,18,35,14,154,*47
$GPRMC,145220.000,A,6429.8768,N,16525.8738,W,6.33,215.16,120610,,,D*73
$GPVTG,215.16,T,,M,6.33,N,11.72,K,D*0A
$GPGGA,145221.000,6429.8754,N,16525.8766,W,2,10,0.78,-4.7,M,7.8,M,0000,0000*6E
$GPGSA,A,3,22,14,28,20,17,19,32,09,27,11,,,1.17,0.78,0.87*0B
$GPGSV,3,1,11,11,61,250,28,14,47,092,23,32,45,216,33,19,25,179,27*7D
$GPGSV,3,2,11,28,22,281,32,20,21,233,28,22,20,070,17,17,20,317,35*75
$GPGSV,3,3,11,09,17,009,19,27,14,000,18,35,14,154,*4D
$GPRMC,145221.000,A,6429.8754,N,16525.8766,W,6.51,213.28,120610,,,D*79
$GPVTG,213.28,T,,M,6.51,N,12.06,K,D*05
$GPGGA,145222.000,6429.8739,N,16525.8797,W,2,10,0.83,-4.1,M,7.8,M,0000,0000*6A
EPOCH
1276354343
$GPGSV,3,1,11,11,61,250,29,14,47,092,23,32,45,216,33,19,25,179,28*73
$GPGSV,3,2,11,28,22,281,32,20,21,233,28,22,20,070,17,17,20,317,35*75
$GPGSV,3,3,11,09,17,009,18,27,14,000,18,35,14,154,*4C
$GPRMC,145222.000,A,6429.8739,N,16525.8797,W,6.44,215.04,120610,,,D*73
$GPVTG,215.04,T,,M,6.44,N,11.94,K,D*01
$GPGGA,145223.000,6429.8725,N,16525.8819,W,2,8,0.92,-3.9,M,7.8,M,0000,0000*59
$GPGSA,A,3,22,28,20,17,19,32,09,11,,,,,2.23,0.92,2.03*05
$GPGSV,3,1,11,11,61,250,30,14,47,092,16,32,45,216,33,19,25,179,29*7C
$GPGSV,3,2,11,28,22,281,33,20,21,233,27,22,20,070,19,17,20,317,35*75
$GPGSV,3,3,11,09,17,009,18,27,14,000,17,35,14,154,*43
$GPRMC,145223.000,A,6429.8725,N,16525.8819,W,6.25,213.65,120610,,,D*70
$GPVTG,213.65,T,,M,6.25,N,11.57,K,D*08
EPOCH
1276354345
$GPGSA,A,3,22,28,20,17,19,32,09,27,11,,,,2.20,0.90,2.01*03
$GPGSV,3,1,11,11,61,249,29,14,47,092,16,32,45,216,34,19,25,179,36*75
$GPGSV,3,2,11,28,22,281,34,20,21,233,27,22,20,070,19,17,20,317,35*72
$GPGSV,3,3,11,09,17,009,18,27,14,000,17,35,14,154,*43
$GPRMC,145224.000,A,6429.8710,N,16525.8853,W,6.65,213.18,120610,,,D*71
$GPVTG,213.18,T,,M,6.65,N,12.33,K,D*07
$GPGGA,145225.000,6429.8693,N,16525.8876,W,2,9,0.89,-2.3,M,7.8,M,0000,0000*5A
$GPGSA,A,3,22,28,20,17,19,32,09,27,11,,,,2.20,0.89,2.01*0B
$GPGSV,3,1,11,11,61,249,29,14,47,092,16,32,45,216,34,19,25,179,36*75
$GPGSV,3,2,11,28,22,281,33,20,21,233,25,22,20,070,18,17,20,317,35*76
$GPGSV,3,3,11,09,17,009,19,27,14,000,17,35,14,154,*42
$GPRMC,145225.000,A,6429.8693,N,16525.8876,W,6.63,211.59,120610,,,D*7C
EPOCH
1276354346
$GPGGA,145226.000,6429.8678,N,16525.8900,W,2,9,0.90,-1.9,M,7.8,M,0000,0000*5D
$GPGSA,A,3,22,28,20,17,19,32,09,27,11,,,,2.20,0.90,2.01*03
$GPGSV,3,1,11,11,61,249,30,14,47,092,17,32,45,216,35,19,25,179,36*7D
$GPGSV,3,2,11,28,22,281,33,20,21,233,25,22,20,070,18,17,20,317,34*77
$GPGSV,3,3,11,09,17,009,20,27,14,000,19,35,14,154,*46
$GPRMC,145226.000,A,6429.8678,N,16525.8900,W,6.58,212.22,120610,,,D*7D
$GPVTG,212.22,T,,M,6.58,N,12.19,K,D*09
$GPGGA,145227.000,6429.8662,N,16525.8919,W,2,9,0.89,-0.9,M,7.8,M,0000,0000*56
$GPGSA,A,3,22,28,20,17,19,32,09,27,11,,,,2.20,0.89,2.01*0B
$GPGSV,3,1,11,11,61,249,29,14,47,092,17,32,45,216,36,19,25,179,35*75
$GPGSV,3,2,11,28,22,281,33,20,21,233,23,22,20,070,18,17,20,317,32*77
$GPGSV,3,3,11,09,17,009,29,27,14,000,30,50,07,232,*46
EPOCH
1276354348
$GPVTG,210.29,T,,M,6.20,N,11.50,K,D*01
$GPGGA,145228.000,6429.8648,N,16525.8949,W,2,9,0.90,-1.4,M,7.8,M,0000,0000*50
$GPGSA,A,3,22,28,20,17,19,32,09,27,11,,,,2.20,0.90,2.01*03
