$IIMTW,12.72,C*25
$IIMWD,274.39,T,,,1.28,N,0.66,M*17
$IIMWV,180.69,T,1.28,N,A*36
$IIROT,5.81,A*1A
$IIVHW,,,77.0,M,0.00,N,0.00,K*1F
$IIVTG,282.2,T,,,0.0,N,0.1,K*31
$IIVWR,178.8,L,1.3,N,0.7,M,2.5,K*53
$SDDPT,5.31,-1.09,*59
$GPGGA,185234,4737.7547,N,12223.4729,W,2,9,0.80,19.80,M,*2A
$IIROT,0.00,A*16
$SDDBT,17.42,f,5.31,M,2.90,F*0A
$SDDPT,5.31,-1.09,*59
$GPGGA,185235,4737.7547,N,12223.4729,W,2,9,0.80,19.90,M,*2A
$GPGLL,4737.7547,N,12223.4729,W,185235,A,D*56
$IIMTW,12.72,C*25
$IIMWV,176.39,R,1.28,N,A*3C
$IIMWV,175.89,T,1.18,N,A*31
$GPRMC,185235,A,4737.7547,N,12223.4729,W,0.09,280.19,010411,16.99,E,D*03
$IIVHW,,,77.3,M,0.00,N,0.00,K*1C
$IIVLW,306.59,N,306.59,N,,,*61
$IIVTG,280.1,T,,,0.0,N,0.1,K*30
$IIZDA,185235,01,04,2011,,*50
$SDDPT,5.31,-1.09,*59
$IIROT,11.69,A*29
$SDDBT,17.42,f,5.31,M,2.90,F*0A
$SDDPT,5.31,-1.09,*59
$GPGGA,185237,4737.7547,N,12223.4729,W,2,9,0.80,20.20,M,*29
$GPGLL,4737.7547,N,12223.4729,W,185237,A,D*54
$GPGSA,A,3,,,,,,,,,,,,,1.7,0.8,1.4*39
$GPGSV,3,1,09,09,10,031,37,11,39,293,40,14,73,068,33,18,16,091,40*77
$GPGSV,3,3,09,32,25,278,36*4E
$IIMTW,12.72,C*25
$IIMWD,253.89,T,,,1.39,N,0.72,M*1C
$IIMWV,160.09,T,1.39,N,A*3E
$IIROT,5.81,A*1A
$IIVHW,,,77.1,M,0.00,N,0.00,K*1E
$IIVTG,280.5,T,,,0.0,N,0.0,K*35
$IIVWR,160.5,R,1.3,N,0.7,M,2.5,K*49
$SDDPT,5.31,-1.09,*59
$GPGGA,185238,4737.7547,N,12223.4729,W,2,9,0.80,20.30,M,*27
$IIROT,5.81,A*1A
$SDDBT,17.42,f,5.31,M,2.90,F*0A
$SDDPT,5.31,-1.09,*59
$GPGGA,185239,4737.7547,N,12223.4729,W,2,9,0.80,20.40,M,*21
$HCHDG,77.5,0.0,E,16.9,E*49
$IIMTW,12.72,C*25
$IIMWV,145.59,R,1.39,N,A*3A
$IIMWV,144.49,T,1.39,N,A*3C
$GPRMC,185239,A,4737.7547,N,12223.4729,W,0.00,280.29,010411,16.99,E,D*05
$IIVHW,,,77.2,M,0.00,N,0.00,K*1D
$IIVLW,306.59,N,306.59,N,,,*61
$IIVWR,145.5,R,1.3,N,0.7,M,2.5,K*4E
$IIZDA,185239,01,04,2011,,*5C
$SDDPT,5.31,-1.09,*59
$IIROT,0.00,A*16
$SDDBT,17.42,f,5.31,M,2.90,F*0A
$IIMWV,141.09,T,1.08,N,A*3F
$IIROT,0.00,A*16
$IIVLW,306.59,N,306.59,N,,,*61
$IIVTG,280.8,T,,,0.0,N,0.1,K*39
$IIZDA,185241,01,04,2011,,*53
$SDDPT,5.31,-1.09,*59
$GPGGA,185242,4737.7547,N,12223.4730,W,2,9,0.80,20.70,M,*26
$IIROT,0.00,A*16
$SDDPT,5.31,-1.09,*59
$GPGGA,185243,4737.7547,N,12223.4730,W,2,9,0.80,20.80,M,*28
$HCHDG,77.2,0.0,E,16.9,E*4E
$IIMWD,249.39,T,,,1.08,N,0.56,M*18
$IIMWV,157.49,R,1.18,N,A*3B
$IIMWV,155.09,T,1.08,N,A*3A
$GPRMC,185243,A,4737.7547,N,12223.4730,W,0.09,280.59,010411,16.99,E,D*0E
$IIVHW,,,77.2,M,0.00,N,0.00,K*1D
$IIVLW,306.59,N,306.59,N,,,*61
$IIVWR,157.4,R,1.1,N,0.6,M,2.1,K*4B
$IIZDA,185243,01,04,2011,,*51
$SDDPT,5.31,-1.09,*59
$IIROT,0.00,A*16
$SDDPT,5.31,-1.09,*59
$GPGGA,185245,4737.7547,N,12223.4730,W,2,9,0.80,20.90,M,*2F
$GPGLL,4737.7547,N,12223.4730,W,185245,A,D*59
$GPGSA,A,3,,,,,,,,,,,,,1.7,0.8,1.4*39
$GPGSV,3,1,09,09,10,031,35,11,39,293,38,14,73,068,34,18,16,091,38*72
$GPGSV,3,2,09,19,25,234,36,22,47,085,40,24,33,305,41,31,18,159,37*73
$GPGSV,3,3,09,32,25,278,37*4F
$IIMTW,12.73,C*24
$IIMWV,158.69,R,1.08,N,A*37
$IIMWV,159.69,T,0.99,N,A*39
$IIROT,5.81,A*1A
$IIVLW,306.59,N,306.59,N,,,*61
$IIVTG,279.4,T,,,0.0,N,0.0,K*32
$IIZDA,185245,01,04,2011,,*57
$SDDPT,5.31,-1.09,*59
$IIROT,5.81,A*1A
$SDDPT,5.31,-1.09,*59
$GPGGA,185247,4737.7547,N,12223.4732,W,2,9,0.80,21.10,M,*26
$HCHDG,77.2,0.0,E,16.9,E*4E
$IIMWD,259.58,T,,,0.99,N,0.51,M*10
$IIMWV,164.69,T,1.08,N,A*3E
$IIROT,5.81,A*1A
$IIVHW,,,77.2,M,0.00,N,0.00,K*1D
$IIVTG,278.7,T,,,0.0,N,0.1,K*31
$IIVWR,166.7,R,1.1,N,0.6,M,2.1,K*4A
$SDDPT,5.31,-1.09,*59
$IIROT,5.81,A*1A
$SDDPT,5.31,-1.09,*59
$GPGGA,185249,4737.7548,N,12223.4732,W,2,9,0.80,21.20,M,*24
$GPGSA,A,3,,,,,,,,,,,,,1.7,0.8,1.4*39
$GPGSV,3,1,09,09,10,031,36,11,39,293,40,14,73,068,35,18,16,091,38*7F
$GPGSV,3,2,09,19,25,234,36,22,47,085,40,24,33,305,39,31,18,159,37*7C
$GPGSV,3,3,09,32,25,278,36*4E
$IIMTW,12.73,C*24
$IIMWV,166.49,R,1.08,N,A*38
$IIMWV,168.39,T,1.08,N,A*37
$GPRMC,185249,A,4737.7548,N,12223.4732,W,0.00,278.49,010411,16.99,E,D*06
$IIVHW,,,77.2,M,0.00,N,0.00,K*1D
$IIVLW,306.59,N,306.59,N,,,*61
$IIVTG,278.4,T,,,0.0,N,0.0,K*33
$IIZDA,185249,01,04,2011,,*5B
$SDDPT,5.31,-1.09,*59
$IIROT,5.81,A*1A
$SDDPT,5.31,-1.09,*59
$GPGLL,4737.7548,N,12223.4733,W,185251,A,D*50
$IIMTW,12.73,C*24
$IIMWD,255.09,T,,,1.08,N,0.56,M*16
$IIMWV,161.69,T,1.08,N,A*3B
$IIROT,5.81,A*1A
$IIVLW,306.59,N,306.59,N,,,*61
$IIVTG,278.6,T,,,0.0,N,0.1,K*30
$IIROT,0.00,A*16
$SDDPT,5.31,-1.09,*59
$GPGGA,185253,4737.7548,N,12223.4733,W,2,9,0.80,21.40,M,*28
$GPGSA,A,3,,,,,,,,,,,,,1.7,0.8,1.4*39
$GPGSV,3,1,09,09,10,031,36,11,39,293,41,14,73,068,34,18,16,091,38*7F
$GPGSV,3,2,09,19,25,234,35,22,47,085,40,24,33,305,38,31,18,159,37*7E
$GPGSV,3,3,09,32,25,278,38*40
$IIMTW,12.73,C*24
$IIMWV,159.89,R,1.28,N,A*3A
$IIMWV,158.39,T,1.18,N,A*35
$IIROT,0.00,A*16
$IIVLW,306.59,N,306.59,N,,,*61
$IIVWR,159.8,R,1.2,N,0.6,M,2.3,K*48
$IIZDA,185253,01,04,2011,,*50
$SDDPT,5.32,-1.09,*5A
$IIROT,0.00,A*16
$SDDPT,5.32,-1.09,*5A
$GPGGA,185255,4737.7547,N,12223.4735,W,2,9,0.80,21.40,M,*27
$GPGLL,4737.7547,N,12223.4735,W,185255,A,D*5D
$IIMTW,12.73,C*24
$SDDPT,5.32,-1.09,*5A
$GPGGA,185257,4737.7547,N,12223.4735,W,2,9,0.80,21.40,M,*25
$GPGSA,A,3,,,,,,,,,,,,,1.7,0.8,1.4*39
$GPGSV,3,1,09,09,10,031,35,11,39,293,41,14,73,068,35,18,16,091,37*72
$GPGSV,3,2,09,19,25,234,35,22,47,085,40,24,33,305,38,31,18,159,36*7F
$GPGSV,3,3,09,32,25,278,39*41
$IIMTW,12.73,C*24
$IIMWV,154.79,R,1.39,N,A*38
$IIMWV,152.49,T,1.28,N,A*3B
$IIROT,-5.81,A*37
$IIVLW,306.59,N,306.59,N,,,*61
$IIVTG,278.0,T,,,0.0,N,0.1,K*36
$IIZDA,185257,01,04,2011,,*54
$SDDPT,5.31,-1.09,*59
$IIROT,-5.81,A*37
$SDDPT,5.31,-1.09,*59
$GPGGA,185259,4737.7547,N,12223.4735,W,2,9,0.80,21.40,M,*2B
$HCHDG,77.3,0.0,E,16.9,E*4F
$IIMWD,235.49,T,,,1.18,N,0.61,M*11
$IIMWV,145.79,R,1.28,N,A*38
$IIMWV,141.79,T,1.18,N,A*39
$GPRMC,185259,A,4737.7547,N,12223.4735,W,0.09,276.39,010411,16.99,E,D*0F
$IIVHW,,,77.3,M,0.00,N,0.00,K*1C
$IIVLW,306.59,N,306.59,N,,,*61
$IIVWR,145.7,R,1.2,N,0.6,M,2.3,K*4A
$IIZDA,185259,01,04,2011,,*5A
$SDDPT,5.31,-1.09,*59
$IIROT,0.00,A*16
$SDDPT,5.31,-1.09,*59
$IIVHW,,,77.2,M,0.00,N,0.00,K*1D
$IIVTG,276.3,T,,,0.0,N,0.1,K*3B
$IIVWR,134.7,R,1.4,N,0.7,M,2.7,K*4F
$SDDPT,5.31,-1.09,*59
$IIROT,0.00,A*16
$IIROT,0.00,A*16
$IIVLW,306.59,N,306.59,N,,,*61
$IIVTG,276.1,T,,,0.0,N,0.1,K*39
$IIZDA,185303,01,04,2011,,*54
$SDDPT,5.31,-1.09,*59
$GPGGA,185305,4737.7547,N,12223.4733,W,2,9,0.80,21.40,M,*25
$GPGLL,4737.7547,N,12223.4733,W,185305,A,D*5F
$GPGSA,A,3,,,,,,,,,,,,,1.7,0.8,1.4*39
$GPGSV,3,1,09,09,10,031,37,11,39,293,41,14,73,068,35,18,16,091,37*70
$GPGSV,3,3,09,32,25,278,39*41
$IIMTW,12.74,C*23
$IIMWD,237.39,T,,,1.18,N,0.61,M*14
$IIMWV,142.49,T,1.18,N,A*39
$IIROT,-5.81,A*37
$IIVLW,306.59,N,306.59,N,,,*61
$IIVTG,276.3,T,,,0.0,N,0.0,K*3A
$IIVWR,140.4,R,1.2,N,0.6,M,2.3,K*4C
$SDDPT,5.31,-1.09,*59
$IIROT,11.69,A*29
$SDDPT,5.31,-1.09,*59
$GPGGA,185307,4737.7545,N,12223.4735,W,2,9,0.80,21.40,M,*23
$IIMTW,12.74,C*23
$IIMWD,256.09,T,,,1.28,N,0.66,M*14
$IIMWV,160.99,T,1.28,N,A*37
$IIROT,0.00,A*16
$IIVHW,,,77.1,M,0.00,N,0.00,K*1E
$IIVTG,275.8,T,,,0.0,N,0.0,K*32
$IIVWR,160.2,R,1.2,N,0.6,M,2.3,K*48
$SDDPT,5.31,-1.09,*59
$IIROT,0.00,A*16
$SDDPT,5.31,-1.09,*59
$GPGLL,4737.7544,N,12223.4735,W,185309,A,D*56
$GPGSA,A,3,,,,,,,,,,,,,1.7,0.8,1.4*39
$GPGSV,3,1,09,09,10,031,38,11,39,293,41,14,73,068,36,18,16,091,36*7D
$GPGSV,3,2,09,19,25,234,37,22,47,085,40,24,33,305,40,31,18,159,37*73
$HCHDG,77.1,0.0,E,16.9,E*4D
$IIMTW,12.74,C*23
$IIMWV,152.79,R,1.49,N,A*39
$IIMWV,151.99,T,1.39,N,A*35
$GPRMC,185309,A,4737.7544,N,12223.4735,W,0.09,274.99,010411,16.99,E,D*00
$IIVHW,,,77.1,M,0.00,N,0.00,K*1E
$IIVLW,306.59,N,306.59,N,,,*61
$IIVTG,274.9,T,,,0.0,N,0.1,K*33
$IIZDA,185309,01,04,2011,,*5E
$SDDPT,5.61,-1.09,*5C
$IIROT,0.00,A*16
$SDDPT,5.31,-1.09,*59
$GPGGA,185311,4737.7544,N,12223.4735,W,2,9,0.80,21.20,M,*23
$GPGLL,4737.7544,N,12223.4735,W,185311,A,D*5F
$IIMTW,12.74,C*23
$IIMWD,248.99,T,,,1.69,N,0.87,M*18
$IIMWV,154.79,T,1.69,N,A*3B
$IIMWD,250.49,T,,,1.78,N,0.92,M*18
$IIMWV,156.19,T,1.78,N,A*3F
$IIROT,0.00,A*16
$IIVHW,,,77.2,M,0.00,N,0.00,K*1D
$IIVTG,273.4,T,,,0.0,N,0.0,K*38
$IIVWR,155.4,R,1.7,N,0.9,M,3.3,K*43
$SDDPT,5.31,-1.09,*59
$GPGGA,185314,4737.7542,N,12223.4733,W,2,9,0.80,21.00,M,*24
$IIROT,0.00,A*16
$SDDBT,17.42,f,5.31,M,2.90,F*0A
$SDDPT,5.31,-1.09,*59
$GPGGA,185315,4737.7542,N,12223.4733,W,2,9,0.80,21.00,M,*25
$HCHDG,77.2,0.0,E,16.9,E*4E
$IIMTW,12.74,C*23
$IIMWV,159.49,R,1.69,N,A*33
$IIMWV,159.99,T,1.69,N,A*38
$GPRMC,185315,A,4737.7542,N,12223.4733,W,0.00,272.69,010411,16.99,E,D*0D
$IIVHW,,,77.2,M,0.00,N,0.00,K*1D
$IIVLW,306.59,N,306.59,N,,,*61
$IIVTG,272.6,T,,,0.0,N,0.0,K*3B
$IIZDA,185315,01,04,2011,,*53
$SDDPT,5.31,-1.09,*59
$IIROT,-5.81,A*37
$SDDBT,18.14,f,5.53,M,3.02,F*08
$SDDPT,5.53,-1.09,*5D
$GPGGA,185317,4737.7544,N,12223.4732,W,2,9,0.80,20.80,M,*29
$GPGLL,4737.7544,N,12223.4732,W,185317,A,D*5E
$GPGSA,A,3,,,,,,,,,,,,,1.7,0.8,1.4*39
$GPGSV,3,1,09,09,10,031,36,11,39,293,41,14,73,068,36,18,16,091,36*73
$GPGSV,3,3,09,32,25,278,38*40
$IIMTW,12.74,C*23
$IIMWD,254.49,T,,,1.69,N,0.87,M*18
$IIMWV,159.89,T,1.69,N,A*39
$IIROT,0.00,A*16
$IIVLW,306.59,N,306.59,N,,,*61
$IIVTG,273.9,T,,,0.0,N,0.1,K*34
$IIVWR,161.3,R,1.7,N,0.9,M,3.3,K*43
$IIROT,0.00,A*16
$IIVLW,306.59,N,306.59,N,,,*61
$IIVTG,273.6,T,,,0.0,N,0.0,K*3A
$IIVWR,160.6,R,2.0,N,1.0,M,3.8,K*40
$SDDPT,5.31,-1.09,*59
$GPGGA,185320,4737.7542,N,12223.4732,W,2,9,0.80,20.70,M,*24
$IIROT,0.00,A*16
$SDDPT,5.31,-1.09,*59
$GPGGA,185321,4737.7542,N,12223.4732,W,2,9,0.80,20.70,M,*25
$GPGLL,4737.7542,N,12223.4732,W,185321,A,D*5D
$GPGSA,A,3,,,,,,,,,,,,,1.7,0.8,1.4*39
$GPGSV,3,1,09,09,10,031,35,11,39,293,42,14,73,067,36,18,16,092,37*7E
$GPGSV,3,3,09,32,25,278,39*41
$IIMTW,12.75,C*22
$IIMWD,258.29,T,,,1.88,N,0.97,M*1C
$IIMWV,163.69,R,2.09,N,A*3D
$IIMWV,163.79,T,1.98,N,A*31
$IIROT,0.00,A*16
$IIVHW,,,77.2,M,0.00,N,0.00,K*1D
$IIVLW,306.59,N,306.59,N,,,*61
$IIVWR,163.6,R,2.0,N,1.0,M,3.8,K*43
$SDDPT,5.31,-1.09,*59
$IIROT,5.81,A*1A
$SDDBT,17.45,f,5.32,M,2.90,F*0E
$SDDPT,5.32,-1.09,*5A
$GPGGA,185323,4737.7542,N,12223.4732,W,2,9,0.80,20.50,M,*25
$GPGLL,4737.7542,N,12223.4732,W,185323,A,D*5F
$IIMTW,12.75,C*22
$IIMWD,263.89,T,,,1.69,N,0.87,M*10
$IIMWV,169.89,T,1.69,N,A*3A
$IIROT,0.00,A*16
$IIVLW,306.59,N,306.59,N,,,*61
$IIVTG,271.7,T,,,0.0,N,0.1,K*38
$IIZDA,185323,01,04,2011,,*56
$SDDPT,5.32,-1.09,*5A
$GPGGA,185324,4737.7541,N,12223.4732,W,2,9,0.80,20.50,M,*21
$IIROT,5.81,A*1A
$SDDBT,17.45,f,5.32,M,2.90,F*0E
$SDDPT,5.32,-1.09,*5A
$GPGGA,185325,4737.7541,N,12223.4730,W,2,9,0.80,20.40,M,*23
$GPGLL,4737.7541,N,12223.4730,W,185325,A,D*58
$GPGSA,A,3,,,,,,,,,,,,,1.7,0.8,1.4*39
$GPGSV,3,1,09,09,10,031,35,11,39,293,42,14,73,067,36,18,16,092,37*7E
$GPGSV,3,3,09,32,25,278,39*41
$HCHDG,77.2,0.0,E,16.9,E*4E
$IIMWD,266.59,T,,,1.59,N,0.82,M*1E
$IIMWV,171.49,T,1.59,N,A*3C
$IIROT,0.00,A*16
$IIVHW,,,77.2,M,0.00,N,0.00,K*1D
$IIVTG,270.6,T,,,0.0,N,0.1,K*38
$IIVWR,171.8,R,1.6,N,0.8,M,3.1,K*4B
$SDDPT,5.32,-1.09,*5A
$IIROT,0.00,A*16
$SDDBT,17.45,f,5.32,M,2.90,F*0E
$SDDPT,5.32,-1.09,*5A
$GPGGA,185327,4737.7541,N,12223.4730,W,2,9,0.80,20.20,M,*27
$GPGLL,4737.7541,N,12223.4730,W,185327,A,D*5A
$IIMTW,12.75,C*22
$IIMWD,266.39,T,,,1.59,N,0.82,M*18
$IIMWV,172.09,T,1.59,N,A*3B
$IIROT,0.00,A*16
$IIVLW,306.59,N,306.59,N,,,*61
$IIVTG,269.9,T,,,0.0,N,0.1,K*3F
$IIZDA,185327,01,04,2011,,*52
$SDDPT,5.32,-1.09,*5A
$GPGGA,185328,4737.7541,N,12223.4730,W,2,9,0.80,20.10,M,*2B
$IIROT,0.00,A*16
$SDDBT,17.45,f,5.32,M,2.90,F*0E
$SDDPT,5.32,-1.09,*5A
$GPGGA,185329,4737.7541,N,12223.4729,W,2,9,0.80,20.10,M,*22
$GPGLL,4737.7541,N,12223.4729,W,185329,A,D*5C
$GPGSA,A,3,,,,,,,,,,,,,1.7,0.8,1.4*39
$GPGSV,3,1,09,09,10,031,35,11,39,293,42,14,73,067,38,18,16,092,36*71
$GPGSV,3,2,09,19,25,234,37,22,47,086,40,24,34,305,42,31,18,159,38*7A
$HCHDG,77.2,0.0,E,16.9,E*4E
$IIMWD,264.49,T,,,1.59,N,0.82,M*1D
$IIMWV,170.19,T,1.59,N,A*38
$IIROT,5.81,A*1A
$IIVHW,,,77.2,M,0.00,N,0.00,K*1D
$IIVTG,270.8,T,,,0.0,N,0.1,K*36
$IIVWR,170.4,R,1.6,N,0.8,M,3.1,K*46
$SDDPT,5.32,-1.09,*5A
$IIROT,-5.81,A*37
$SDDBT,18.11,f,5.52,M,3.01,F*0F
$SDDPT,5.52,-1.09,*5C
$GPGGA,185331,4737.7541,N,12223.4729,W,2,9,0.80,19.90,M,*29
$GPGLL,4737.7541,N,12223.4729,W,185331,A,D*55
$IIMTW,12.75,C*22
$IIMWV,173.79,R,1.78,N,A*38
$IIMWV,173.69,T,1.78,N,A*3F
$IIROT,0.00,A*16
$IIVLW,306.59,N,306.59,N,,,*61
$IIVTG,270.1,T,,,0.0,N,0.0,K*3E
$IIVWR,173.7,R,1.7,N,0.9,M,3.3,K*44
$SDDPT,5.32,-1.09,*5A
$GPGGA,185332,4737.7541,N,12223.4729,W,2,9,0.80,19.80,M,*2B
$IIROT,0.00,A*16
$SDDPT,5.32,-1.09,*5A
$GPGGA,185333,4737.7541,N,12223.4727,W,2,9,0.80,19.70,M,*2B
$GPGLL,4737.7541,N,12223.4727,W,185333,A,D*59
$GPGSA,A,3,,,,,,,,,,,,,1.7,0.8,1.4*39
$GPGSV,3,1,09,09,10,031,35,11,39,293,41,14,73,067,38,18,16,092,36*72
$GPGSV,3,2,09,19,25,234,38,22,47,086,39,24,34,305,41,31,18,159,38*78
$HCHDG,77.2,0.0,E,16.9,E*4E
$IIMWD,268.79,T,,,1.59,N,0.82,M*12
$IIMWV,175.19,R,1.69,N,A*38
$IIMWV,174.69,T,1.59,N,A*3B
$IIROT,5.81,A*1A
$IIVHW,,,77.2,M,0.00,N,0.00,K*1D
$IIVLW,306.59,N,306.59,N,,,*61
$IIVWR,175.1,R,1.6,N,0.8,M,3.1,K*46
$SDDPT,5.32,-1.09,*5A
$IIROT,5.81,A*1A
$SDDBT,17.45,f,5.32,M,2.90,F*0E
$SDDPT,5.32,-1.09,*5A
$GPGGA,185335,4737.7542,N,12223.4726,W,2,9,0.80,19.50,M,*2D
$GPGLL,4737.7542,N,12223.4726,W,185335,A,D*5D
$IIMTW,12.75,C*22
$IIMWD,268.19,T,,,1.59,N,0.82,M*14
$IIMWV,173.69,T,1.59,N,A*3C
$IIROT,5.81,A*1A
$IIVLW,306.59,N,306.59,N,,,*61
$IIVTG,269.5,T,,,0.0,N,0.0,K*32
$IIVWR,174.5,R,1.5,N,0.8,M,2.9,K*49
$SDDPT,5.32,-1.09,*5A
$GPGGA,185336,4737.7542,N,12223.4726,W,2,9,0.80,19.50,M,*2E
$IIROT,0.00,A*16
$SDDBT,17.45,f,5.32,M,2.90,F*0E
$SDDPT,5.32,-1.09,*5A
$GPGGA,185337,4737.7544,N,12223.4726,W,2,9,0.80,19.40,M,*28
$GPGLL,4737.7544,N,12223.4726,W,185337,A,D*59
$GPGSA,A,3,,,,,,,,,,,,,1.7,0.8,1.4*39
$GPGSV,3,1,09,09,10,031,35,11,39,293,40,14,73,067,38,18,16,092,37*72
$GPGSV,3,2,09,19,25,234,37,22,47,086,40,24,34,305,40,31,18,159,38*78
$HCHDG,77.1,0.0,E,16.9,E*4D
$IIMWD,269.29,T,,,1.59,N,0.82,M*16
$IIMWV,174.09,R,1.69,N,A*38
$IIMWV,175.09,T,1.59,N,A*3C
$IIROT,0.00,A*16
$IIVHW,,,77.1,M,0.00,N,0.00,K*1E
$IIVLW,306.59,N,306.59,N,,,*61
$IIVWR,174.0,R,1.6,N,0.8,M,3.1,K*46
$SDDPT,5.32,-1.09,*5A
$IIROT,0.00,A*16
$SDDBT,17.42,f,5.31,M,2.90,F*0A
$SDDPT,5.31,-1.09,*59
$GPGGA,185339,4737.7544,N,12223.4726,W,2,9,0.80,19.20,M,*20
$GPGLL,4737.7544,N,12223.4726,W,185339,A,D*57
$IIMTW,12.75,C*22
$IIMWD,267.49,T,,,1.59,N,0.82,M*1E
$IIMWV,174.69,T,1.49,N,A*3A
$IIROT,5.81,A*1A
$IIVLW,306.59,N,306.59,N,,,*61
$IIVTG,269.7,T,,,0.0,N,0.1,K*31
$IIVWR,174.6,R,1.6,N,0.8,M,3.1,K*40
$SDDPT,5.31,-1.09,*59
$GPGGA,185340,4737.7544,N,12223.4724,W,2,9,0.80,19.10,M,*2F
$IIROT,5.81,A*1A
$SDDBT,17.42,f,5.31,M,2.90,F*0A
$SDDPT,5.31,-1.09,*59
$GPGGA,185341,4737.7544,N,12223.4724,W,2,9,0.80,18.90,M,*27
$GPGLL,4737.7544,N,12223.4724,W,185341,A,D*5A
$GPGSA,A,3,,,,,,,,,,,,,1.7,0.8,1.4*39
$GPGSV,3,1,09,09,10,031,36,11,39,293,40,14,73,067,37,18,16,092,37*7E
$GPGSV,3,2,09,19,25,234,36,22,47,086,40,24,34,305,39,31,18,159,38*77
$HCHDG,77.2,0.0,E,16.9,E*4E
$IIMWD,266.89,T,,,1.69,N,0.87,M*15
$IIMWV,172.59,T,1.69,N,A*3D
$GPRMC,185341,A,4737.7544,N,12223.4724,W,0.00,270.19,010411,16.99,E,D*09
$IIVHW,,,77.2,M,0.00,N,0.00,K*1D
$IIVTG,270.1,T,,,0.0,N,0.0,K*3E
$IIVWR,173.0,R,1.6,N,0.8,M,3.1,K*41
$SDDPT,5.50,-1.09,*5E
$IIROT,5.81,A*1A
$SDDPT,5.31,-1.09,*59
$GPGGA,185343,4737.7545,N,12223.4723,W,2,9,0.80,18.80,M,*22
$GPGLL,4737.7545,N,12223.4723,W,185343,A,D*5E
$IIMTW,12.76,C*21
$IIMWD,264.59,T,,,1.59,N,0.82,M*1C
$IIMWV,170.29,T,1.59,N,A*3B
$IIROT,-5.81,A*37
$IIVHW,,,77.2,M,0.00,N,0.00,K*1D
$IIVTG,269.8,T,,,0.0,N,0.0,K*3F
$IIVWR,171.1,R,1.6,N,0.8,M,3.1,K*42
$SDDPT,5.31,-1.09,*59
$GPGGA,185344,4737.7545,N,12223.4723,W,2,9,0.80,18.60,M,*2B
$IIROT,-5.81,A*37
$SDDPT,5.31,-1.09,*59
$GPGGA,185345,4737.7545,N,12223.4723,W,2,9,0.80,18.50,M,*29
$GPGLL,4737.7545,N,12223.4723,W,185345,A,D*58
$GPGSA,A,3,,,,,,,,,,,,,1.7,0.8,1.4*39
$GPGSV,3,1,09,09,10,031,36,11,39,293,39,14,73,067,37,18,16,092,38*7F
$GPGSV,3,2,09,19,25,234,36,22,47,086,40,24,34,305,38,31,18,159,37*79
$HCHDG,77.2,0.0,E,16.9,E*4E
$IIMWD,263.09,T,,,1.59,N,0.82,M*1E
$IIMWV,168.19,R,1.59,N,A*37
$IIMWV,167.99,T,1.59,N,A*36
$GPRMC,185345,A,4737.7545,N,12223.4723,W,0.00,270.79,010411,16.99,E,D*0D
$IIVHW,,,77.2,M,0.00,N,0.00,K*1D
$IIVLW,306.59,N,306.59,N,,,*61
$IIVWR,168.1,R,1.5,N,0.8,M,2.9,K*40
$SDDPT,5.31,-1.09,*59
$IIROT,-11.69,A*04
$SDDPT,5.31,-1.09,*59
$GPGGA,185347,4737.7545,N,12223.4723,W,2,9,0.80,18.30,M,*2D
$GPGLL,4737.7545,N,12223.4723,W,185347,A,D*5A
$IIMTW,12.76,C*21
$IIMWD,259.58,T,,,1.49,N,0.77,M*18
$IIMWV,164.89,T,1.49,N,A*35
$IIROT,0.00,A*16
$IIVLW,306.59,N,306.59,N,,,*61
$IIVTG,269.0,T,,,0.0,N,0.1,K*36
$IIVWR,166.0,R,1.4,N,0.7,M,2.7,K*4F
$SDDPT,5.31,-1.09,*59
$GPGGA,185348,4737.7547,N,12223.4723,W,2,9,0.80,18.10,M,*22
$IIROT,5.81,A*1A
$SDDPT,5.29,-1.09,*50
$GPGGA,185349,4737.7547,N,12223.4723,W,2,9,0.80,18.00,M,*22
$GPGLL,4737.7547,N,12223.4723,W,185349,A,D*56
$GPGSA,A,3,,,,,,,,,,,,,1.7,0.8,1.4*39
$GPGSV,3,1,09,09,10,031,36,11,39,293,39,14,73,067,37,18,16,092,38*7F
$GPGSV,3,2,09,19,25,234,37,22,47,086,40,24,34,305,36,31,18,159,36*77
$HCHDG,77.3,0.0,E,16.9,E*4F
$IIMWD,257.49,T,,,1.49,N,0.77,M*16
$IIMWV,163.09,T,1.49,N,A*3A
$GPRMC,185349,A,4737.7547,N,12223.4723,W,0.09,269.69,010411,16.99,E,D*03
$IIVHW,,,77.3,M,0.00,N,0.00,K*1C
$IIVLW,306.59,N,306.59,N,,,*61
$IIVTG,269.6,T,,,0.0,N,0.1,K*30
$IIZDA,185349,01,04,2011,,*5A
$SDDPT,5.31,-1.09,*59
$IIROT,-5.81,A*37
$SDDPT,5.31,-1.09,*59
$GPGGA,185351,4737.7547,N,12223.4723,W,2,9,0.80,17.80,M,*2C
$IIMTW,12.77,C*20
$IIMWD,255.29,T,,,1.69,N,0.87,M*1F
$IIMWV,160.49,R,1.69,N,A*39
$IIMWV,160.59,T,1.69,N,A*3E
$IIROT,0.00,A*16
$IIVHW,,,77.3,M,0.00,N,0.00,K*1C
$IIVLW,306.59,N,306.59,N,,,*61
$IIVWR,160.4,R,1.6,N,0.8,M,3.1,K*47
$SDDPT,5.31,-1.09,*59
$IIROT,11.69,A*29
$SDDPT,5.31,-1.09,*59
$GPGLL,4737.7547,N,12223.4724,W,185353,A,D*5A
$GPGSA,A,3,,,,,,,,,,,,,1.7,0.8,1.4*39
$GPGSV,3,1,09,09,10,031,36,11,39,293,38,14,73,067,37,18,16,092,37*71
$GPGSV,3,2,09,19,25,234,37,22,47,086,40,24,34,305,37,31,18,159,36*76
$HCHDG,77.4,0.0,E,16.9,E*48
$IIMTW,12.77,C*20
$IIMWV,160.49,R,1.59,N,A*3A
$IIMWV,158.99,T,1.49,N,A*3B
$GPRMC,185353,A,4737.7547,N,12223.4724,W,0.09,270.49,010411,16.99,E,D*05
$IIROT,5.81,A*1A
$IIVLW,306.59,N,306.59,N,,,*61
$IIVTG,270.4,T,,,0.0,N,0.1,K*3A
$IIZDA,185353,01,04,2011,,*51
$SDDPT,5.31,-1.09,*59
$IIROT,0.00,A*16
$SDDPT,5.31,-1.09,*59
$GPGLL,4737.7547,N,12223.4724,W,185355,A,D*5C
$HCHDG,77.4,0.0,E,16.9,E*48
$IIMWD,252.79,T,,,1.39,N,0.72,M*12
$IIMWV,158.69,T,1.28,N,A*33
$IIROT,0.00,A*16
$IIVHW,,,77.4,M,0.00,N,0.00,K*1B
$IIVTG,271.7,T,,,0.0,N,0.0,K*39
$IIVWR,159.1,R,1.3,N,0.7,M,2.5,K*47
$SDDPT,5.31,-1.09,*59
$IIROT,0.00,A*16
$SDDPT,5.53,-1.09,*5D
$GPGGA,185357,4737.7548,N,12223.4724,W,2,9,0.80,17.00,M,*2A
$GPGLL,4737.7548,N,12223.4724,W,185357,A,D*51
$GPGSA,A,3,,,,,,,,,,,,,1.7,0.8,1.4*39
$GPGSV,3,1,09,09,10,031,35,11,39,293,39,14,73,067,38,18,16,092,37*7C
$GPGSV,3,2,09,19,25,234,38,22,47,086,41,24,34,305,37,31,18,159,36*78
$GPGSV,3,3,09,32,25,278,37*4F
$IIMTW,12.77,C*20
$IIMWV,160.69,R,1.28,N,A*3E
$IIMWV,160.29,T,1.18,N,A*3F
$GPRMC,185357,A,4737.7548,N,12223.4724,W,0.09,272.89,010411,16.99,E,D*00
$IIROT,5.81,A*1A
$IIVLW,306.59,N,306.59,N,,,*61
$IIVTG,272.8,T,,,0.0,N,0.1,K*34
$IIZDA,185357,01,04,2011,,*55
$SDDPT,5.31,-1.09,*59
$IIROT,5.81,A*1A
$SDDPT,5.31,-1.09,*59
$GPGGA,185359,4737.7548,N,12223.4724,W,2,9,0.80,16.80,M,*2D
$HCHDG,77.4,0.0,E,16.9,E*48
$IIMWD,262.89,T,,,0.99,N,0.51,M*14
$IIMWV,168.79,T,0.99,N,A*3A
$IIROT,0.00,A*16
$IIVHW,,,77.4,M,0.00,N,0.00,K*1B
$IIVTG,271.1,T,,,0.0,N,0.1,K*3E
$IIVWR,167.7,R,1.0,N,0.5,M,2.0,K*48
$SDDPT,5.31,-1.09,*59
$IIROT,-5.81,A*37
$SDDPT,5.31,-1.09,*59
$GPGGA,185401,4737.7548,N,12223.4724,W,2,9,0.80,16.60,M,*29
$GPGSA,A,3,,,,,,,,,,,,,1.7,0.8,1.4*39
$GPGSV,3,1,09,09,10,031,35,11,39,293,38,14,73,067,37,18,16,092,34*71
$GPGSV,3,2,09,19,25,234,37,22,47,086,41,24,34,305,39,31,18,159,37*78
$GPGSV,3,3,09,32,25,278,37*4F
$IIMTW,12.77,C*20
$IIMWV,173.39,R,1.08,N,A*3B
$IIMWV,172.69,T,0.89,N,A*31
$GPRMC,185401,A,4737.7548,N,12223.4724,W,0.09,269.99,010411,16.99,E,D*0F
$IIVHW,,,77.3,M,0.00,N,0.00,K*1C
$IIVLW,306.59,N,306.59,N,,,*61
$IIVTG,269.9,T,,,0.0,N,0.1,K*3F
$IIZDA,185401,01,04,2011,,*51
$SDDPT,5.29,-1.09,*50
$IIROT,5.81,A*1A
$SDDPT,5.31,-1.09,*59
$GPGGA,185403,4737.7548,N,12223.4724,W,2,9,0.80,16.30,M,*2E
$HCHDG,77.4,0.0,E,16.9,E*48
$IIMWD,262.69,T,,,0.99,N,0.51,M*1A
$IIMWV,167.99,T,0.99,N,A*3B
$IIROT,-11.69,A*04
$IIVHW,,,77.4,M,0.00,N,0.00,K*1B
$IIVLW,306.59,N,306.59,N,,,*61
$IIVWR,170.2,R,1.0,N,0.5,M,2.0,K*4B
$SDDPT,5.31,-1.09,*59
$IIROT,0.00,A*16
$SDDPT,5.31,-1.09,*59
$GPGGA,185405,4737.7550,N,12223.4726,W,2,9,0.80,16.00,M,*20
$GPGSA,A,3,,,,,,,,,,,,,1.7,0.8,1.4*39
$GPGSV,3,1,09,09,10,031,36,11,39,293,39,14,73,067,37,18,16,092,37*70
$GPGSV,3,2,09,19,25,234,37,22,47,086,41,24,34,305,39,31,18,159,38*77
$HCHDG,77.2,0.0,E,16.9,E*4E
$IIMTW,12.77,C*20
$IIMWV,167.69,R,0.99,N,A*32
$IIMWV,167.69,T,0.89,N,A*35
$GPRMC,185405,A,4737.7550,N,12223.4726,W,0.00,268.89,010411,16.99,E,D*09
$IIVHW,,,77.3,M,0.00,N,0.00,K*1C
$IIVLW,306.59,N,306.59,N,,,*61
$IIVTG,268.8,T,,,0.0,N,0.0,K*3E
$IIZDA,185405,01,04,2011,,*55
$SDDPT,5.31,-1.09,*59
$IIROT,0.00,A*16
$SDDPT,5.31,-1.09,*59
$GPGGA,185407,4737.7550,N,12223.4726,W,2,9,0.80,15.70,M,*26
$IIMTW,12.78,C*2F
$IIMWD,262.89,T,,,0.89,N,0.46,M*13
$IIMWV,168.19,R,0.89,N,A*3B
$IIMWV,168.59,T,0.99,N,A*38
$IIROT,0.00,A*16
$IIVHW,,,77.3,M,0.00,N,0.00,K*1C
$IIVTG,268.7,T,,,0.0,N,0.0,K*31
$IIVWR,168.1,R,0.8,N,0.4,M,1.6,K*4C
$SDDPT,5.32,-1.09,*5A
$IIROT,5.81,A*1A
$SDDPT,5.32,-1.09,*5A
$GPGLL,4737.7550,N,12223.4726,W,185409,A,D*56
$GPGSA,A,3,,,,,,,,,,,,,1.7,0.8,1.4*39
$GPGSV,3,1,09,09,10,031,36,11,39,293,39,14,73,067,37,18,16,092,37*70
$GPGSV,3,2,09,19,25,234,39,22,47,086,41,24,34,305,41,31,18,159,38*76
$HCHDG,77.3,0.0,E,16.9,E*4F
$IIMTW,12.78,C*2F
$IIMWV,166.69,R,0.89,N,A*32
$IIMWV,166.59,T,0.89,N,A*37
$GPRMC,185409,A,4737.7550,N,12223.4726,W,0.00,269.49,010411,16.99,E,D*08
$IIROT,5.81,A*1A
$IIVLW,306.59,N,306.59,N,,,*61
$IIVTG,269.4,T,,,0.0,N,0.0,K*33
$IIZDA,185409,01,04,2011,,*59
$SDDPT,5.32,-1.09,*5A
$IIROT,0.00,A*16
$SDDPT,5.32,-1.09,*5A
$GPGLL,4737.7551,N,12223.4726,W,185411,A,D*5E
$HCHDG,77.3,0.0,E,16.9,E*4F
$IIMWD,263.79,T,,,0.69,N,0.36,M*14
$IIMWV,174.19,T,0.69,N,A*3E
$IIROT,0.00,A*16
$IIVHW,,,77.5,M,0.00,N,0.00,K*1A
$IIVTG,267.9,T,,,0.0,N,0.1,K*31
$IIVWR,173.7,R,0.7,N,0.4,M,1.4,K*4D
$SDDPT,5.32,-1.09,*5A
$IIROT,-5.81,A*37
$SDDPT,5.32,-1.09,*5A
$GPGGA,185413,4737.7551,N,12223.4726,W,2,9,0.80,14.80,M,*2C
$GPGLL,4737.7551,N,12223.4726,W,185413,A,D*5C
$GPGSA,A,3,,,,,,,,,,,,,1.7,0.8,1.4*39
$GPGSV,3,1,09,09,10,031,37,11,39,293,39,14,73,067,37,18,16,092,38*7E
$GPGSV,3,2,09,19,25,234,38,22,47,086,40,24,34,305,41,31,18,159,38*76
$GPGSV,3,3,09,32,25,278,39*41
$IIMTW,12.77,C*20
$IIMWV,176.19,R,0.99,N,A*35
$IIMWV,176.89,T,0.89,N,A*3B
$GPRMC,185413,A,4737.7551,N,12223.4726,W,0.09,267.89,010411,16.99,E,D*09
$IIROT,5.81,A*1A
$IIVLW,306.59,N,306.59,N,,,*61
$IIVTG,267.8,T,,,0.0,N,0.1,K*30
$IIZDA,185413,01,04,2011,,*52
$SDDPT,5.32,-1.09,*5A
$IIROT,0.00,A*16
$SDDPT,5.31,-1.09,*59
$GPGGA,185415,4737.7553,N,12223.4726,W,2,9,0.80,14.60,M,*26
$HCHDG,77.3,0.0,E,16.9,E*4F
$IIMWD,273.09,T,,,0.89,N,0.46,M*1B
$IIMWV,174.69,T,0.89,N,A*37
$IIROT,0.00,A*16
$IIVHW,,,77.3,M,0.00,N,0.00,K*1C
$IIVTG,267.4,T,,,0.0,N,0.1,K*3C
$IIVWR,176.0,R,0.9,N,0.5,M,1.8,K*4C
$SDDPT,5.32,-1.09,*5A
$IIROT,0.00,A*16
$SDDPT,5.32,-1.09,*5A
$GPGGA,185417,4737.7551,N,12223.4727,W,2,9,0.80,14.40,M,*25
$GPGSA,A,3,,,,,,,,,,,,,1.7,0.8,1.4*39
$GPGSV,3,1,09,09,10,031,36,11,39,293,40,14,73,067,37,18,16,092,37*7E
$GPGSV,3,2,09,19,25,234,37,22,47,086,40,24,34,305,42,31,18,159,37*75
$GPGSV,3,3,09,32,25,278,37*4F
$IIMTW,12.78,C*2F
$IIMWV,187.79,R,0.99,N,A*3D
$IIMWV,187.89,T,0.89,N,A*35
$GPRMC,185417,A,4737.7551,N,12223.4727,W,0.00,267.39,010411,16.99,E,D*0E
$IIVHW,,,77.3,M,0.00,N,0.00,K*1C
$IIVLW,306.59,N,306.59,N,,,*61
$IIVTG,267.3,T,,,0.0,N,0.0,K*3A
$IIZDA,185417,01,04,2011,,*56
$SDDPT,5.32,-1.09,*5A
$IIROT,5.81,A*1A
$SDDPT,5.32,-1.09,*5A
$GPGGA,185419,4737.7551,N,12223.4726,W,2,9,0.80,14.20,M,*2C
$HCHDG,77.4,0.0,E,16.9,E*48
$IIMWD,282.29,T,,,1.08,N,0.56,M*1E
$IIMWV,179.99,T,0.99,N,A*34
$IIROT,5.81,A*1A
$IIVHW,,,77.4,M,0.00,N,0.00,K*1B
$IIVTG,266.6,T,,,0.0,N,0.0,K*3E
$IIVWR,172.2,L,1.0,N,0.5,M,2.0,K*57
$SDDPT,5.32,-1.09,*5A
$IIROT,5.81,A*1A
$SDDPT,5.50,-1.09,*5E
$GPGGA,185421,4737.7550,N,12223.4726,W,2,9,0.80,14.00,M,*24
$GPGSA,A,3,,,,,,,,,,,,,1.7,0.8,1.4*39
$GPGSV,3,1,09,09,09,031,36,11,39,292,41,14,73,066,36,18,15,092,37*75
$GPGSV,3,2,09,19,24,233,36,22,46,086,40,24,34,305,41,31,19,159,35*73
$HCHDG,77.4,0.0,E,16.9,E*48
$IIMTW,12.78,C*2F
$IIMWV,174.59,R,1.08,N,A*3A
$IIMWV,175.59,T,1.08,N,A*3D
$GPRMC,185421,A,4737.7550,N,12223.4726,W,0.00,265.49,010411,16.99,E,D*0E
$IIVHW,,,77.4,M,0.00,N,0.00,K*1B
$IIVLW,306.59,N,306.59,N,,,*61
$IIVTG,265.4,T,,,0.0,N,0.0,K*3F
$IIZDA,185421,01,04,2011,,*53
$SDDPT,5.32,-1.09,*5A
$IIROT,5.81,A*1A
$SDDPT,5.32,-1.09,*5A
$GPGGA,185423,4737.7550,N,12223.4726,W,2,9,0.80,13.90,M,*28
$IIMTW,12.79,C*2E
$IIMWD,261.49,T,,,0.79,N,0.41,M*14
$IIMWV,166.09,R,0.99,N,A*35
$IIMWV,165.59,T,0.89,N,A*34
$IIROT,-5.81,A*37
$IIVHW,,,77.4,M,0.00,N,0.00,K*1B
$IIVLW,306.59,N,306.59,N,,,*61
$IIVWR,166.0,R,0.9,N,0.5,M,1.8,K*4D
$SDDPT,5.32,-1.09,*5A
$IIROT,0.00,A*16
$SDDPT,5.32,-1.09,*5A
$GPGLL,4737.7551,N,12223.4726,W,185425,A,D*59
$GPGSA,A,3,,,,,,,,,,,,,1.7,0.8,1.4*39
$GPGSV,3,1,09,09,09,031,37,11,39,292,40,14,73,066,36,18,15,092,36*74
$GPGSV,3,2,09,19,24,233,35,22,46,086,40,24,34,305,40,31,19,159,34*70
$HCHDG,77.4,0.0,E,16.9,E*48
$IIMTW,12.79,C*2E
$IIMWV,166.79,R,0.69,N,A*3D
$IIMWV,165.59,T,0.69,N,A*3A
$GPRMC,185425,A,4737.7551,N,12223.4726,W,0.00,264.59,010411,16.99,E,D*0B
$IIVHW,,,77.5,M,0.00,N,0.00,K*1A
$IIVLW,306.59,N,306.59,N,,,*61
$IIVTG,264.5,T,,,0.0,N,0.0,K*3F
$IIZDA,185425,01,04,2011,,*57
$SDDPT,5.32,-1.09,*5A
$IIROT,-5.81,A*37
$SDDPT,5.32,-1.09,*5A
$GPGLL,4737.7550,N,12223.4727,W,185427,A,D*5B
$HCHDG,77.4,0.0,E,16.9,E*48
$IIMWD,264.29,T,,,0.38,N,0.20,M*15
$IIMWV,170.39,R,0.48,N,A*3D
$IIROT,0.00,A*16
$IIVHW,,,77.3,M,0.00,N,0.00,K*1C
$IIVTG,264.4,T,,,0.0,N,0.1,K*3F
$IIVWR,170.3,R,0.4,N,0.2,M,0.8,K*42
$SDDPT,5.32,-1.09,*5A
$IIROT,0.00,A*16
$SDDPT,5.32,-1.09,*5A
$GPGGA,185429,4737.7550,N,12223.4727,W,2,9,0.80,13.50,M,*2F
$GPGLL,4737.7550,N,12223.4727,W,185429,A,D*55
$GPGSA,A,3,,,,,,,,,,,,,1.7,0.8,1.4*39
$GPGSV,3,1,09,09,09,031,37,11,39,292,41,14,73,066,36,18,15,092,36*75
$GPGSV,3,2,09,19,24,233,35,22,46,086,40,24,34,305,40,31,19,159,34*70
$GPGSV,3,3,09,32,26,278,36*4D
$IIMTW,12.78,C*2F
$IIMWV,187.79,R,0.48,N,A*31
$IIMWV,191.99,T,0.38,N,A*39
$GPRMC,185429,A,4737.7550,N,12223.4727,W,0.09,265.09,010411,16.99,E,D*0A
$IIROT,0.00,A*16
$IIVLW,306.59,N,306.59,N,,,*61
$IIVTG,265.0,T,,,0.0,N,0.1,K*3A
$IIZDA,185429,01,04,2011,,*5B
$SDDPT,5.32,-1.09,*5A
$IIROT,-11.69,A*04
$SDDPT,5.31,-1.09,*59
$GPGGA,185431,4737.7550,N,12223.4729,W,2,9,0.80,13.40,M,*29
$HCHDG,77.2,0.0,E,16.9,E*4E
$IIMWD,282.19,T,,,0.48,N,0.25,M*1C
$IIMWV,187.79,T,0.48,N,A*37
$IIROT,-5.81,A*37
$IIVHW,,,77.2,M,0.00,N,0.00,K*1D
$SDDBT,17.45,f,5.32,M,2.90,F*0E
$SDDPT,5.32,-1.09,*5A
$GPGGA,185433,4737.7547,N,12223.4729,W,2,9,0.80,13.30,M,*2A
$GPGLL,4737.7547,N,12223.4729,W,185433,A,D*56
$GPGSA,A,3,,,,,,,,,,,,,1.7,0.8,1.4*39
$GPGSV,3,1,09,09,09,031,36,11,39,292,42,14,73,066,36,18,15,092,36*77
$GPGSV,3,2,09,19,24,233,36,22,46,086,41,24,34,305,40,31,19,159,36*70
$HCHDG,77.2,0.0,E,16.9,E*4E
$IIMWD,271.09,T,,,0.58,N,0.30,M*14
$IIMWV,175.69,R,0.58,N,A*3C
$IIMWV,176.39,T,0.58,N,A*3C
$IIROT,0.00,A*16
$IIVHW,,,77.2,M,0.00,N,0.00,K*1D
$IIVLW,306.59,N,306.59,N,,,*61
$IIVWR,175.6,R,0.5,N,0.3,M,1.0,K*4B
$SDDPT,5.32,-1.09,*5A
$IIROT,0.00,A*16
$SDDBT,17.45,f,5.32,M,2.90,F*0E
$SDDPT,5.32,-1.09,*5A
$GPGGA,185435,4737.7545,N,12223.4727,W,2,9,0.80,13.20,M,*21
$GPGLL,4737.7545,N,12223.4727,W,185435,A,D*5C
$IIMTW,12.79,C*2E
$IIMWD,265.59,T,,,0.58,N,0.30,M*14
$IIMWV,171.39,T,0.58,N,A*3B
$IIROT,5.81,A*1A
$IIVHW,,,77.1,M,0.00,N,0.00,K*1E
$IIVTG,267.3,T,,,0.0,N,0.1,K*3B
$IIVWR,179.1,R,0.6,N,0.3,M,1.2,K*41
$SDDPT,5.32,-1.09,*5A
$GPGGA,185436,4737.7544,N,12223.4727,W,2,9,0.80,13.10,M,*20
$IIROT,5.81,A*1A
$SDDBT,17.45,f,5.32,M,2.90,F*0E
$SDDPT,5.32,-1.09,*5A
$GPGGA,185437,4737.7544,N,12223.4727,W,2,9,0.80,13.10,M,*21
$GPGLL,4737.7544,N,12223.4727,W,185437,A,D*5F
$GPGSA,A,3,,,,,,,,,,,,,1.7,0.8,1.4*39
$GPGSV,3,1,09,09,09,031,36,11,39,292,42,14,73,066,37,18,15,092,36*76
$GPGSV,3,2,09,19,24,233,36,22,46,086,41,24,34,305,37,31,19,159,37*71
$HCHDG,77.1,0.0,E,16.9,E*4D
$IIMWD,265.79,T,,,0.69,N,0.36,M*12
$IIMWV,171.59,T,0.69,N,A*3F
$GPRMC,185437,A,4737.7544,N,12223.4727,W,0.09,267.09,010411,16.99,E,D*02
$IIVHW,,,77.1,M,0.00,N,0.00,K*1E
$IIVTG,267.0,T,,,0.0,N,0.1,K*38
$IIVWR,171.4,R,0.7,N,0.4,M,1.4,K*4C
$SDDPT,5.32,-1.09,*5A
$IIROT,0.00,A*16
$SDDPT,5.32,-1.09,*5A
$GPGGA,185439,4737.7542,N,12223.4729,W,2,9,0.80,12.90,M,*2E
$GPGLL,4737.7542,N,12223.4729,W,185439,A,D*59
$IIMTW,12.79,C*2E
$IIMWD,268.79,T,,,0.99,N,0.51,M*11
$IIMWV,175.79,T,0.99,N,A*36
$IIROT,5.81,A*1A
$IIVLW,306.59,N,306.59,N,,,*61
$IIVTG,267.1,T,,,0.0,N,0.0,K*38
$IIVWR,172.5,R,0.9,N,0.5,M,1.8,K*4D
$SDDPT,5.32,-1.09,*5A
$GPGGA,185440,4737.7542,N,12223.4729,W,2,9,0.80,12.90,M,*20
$IIROT,5.81,A*1A
$SDDPT,5.32,-1.09,*5A
$GPGGA,185441,4737.7541,N,12223.4729,W,2,9,0.80,12.80,M,*23
$GPGLL,4737.7541,N,12223.4729,W,185441,A,D*55
$GPGSA,A,3,,,,,,,,,,,,,1.7,0.8,1.4*39
$GPGSV,3,1,09,09,09,031,36,11,39,292,42,14,73,066,36,18,15,092,36*77
$GPGSV,3,2,09,19,24,233,35,22,46,086,40,24,34,305,37,31,19,159,37*73
$HCHDG,77.0,0.0,E,16.9,E*4C
$IIMWD,272.19,T,,,0.89,N,0.46,M*1B
$IIMWV,175.19,R,0.89,N,A*37
$IIMWV,174.19,T,0.79,N,A*3F
$GPRMC,185441,A,4737.7541,N,12223.4729,W,0.00,266.79,010411,16.99,E,D*07
$IIVHW,,,77.0,M,0.00,N,0.00,K*1F
$IIVLW,306.59,N,306.59,N,,,*61
$IIVWR,175.1,R,0.8,N,0.4,M,1.6,K*40
$SDDPT,5.32,-1.09,*5A
$IIROT,-5.81,A*37
$SDDPT,5.32,-1.09,*5A
$GPGGA,185443,4737.7541,N,12223.4729,W,2,9,0.80,12.60,M,*2F
$GPGLL,4737.7541,N,12223.4729,W,185443,A,D*57
$IIMTW,12.79,C*2E
$IIMWD,281.79,T,,,0.99,N,0.51,M*16
$IIMWV,187.89,T,1.08,N,A*3D
$IIROT,0.00,A*16
$IIVLW,306.59,N,306.59,N,,,*61
$IIVTG,267.0,T,,,0.0,N,0.0,K*39
$IIVWR,172.2,L,0.9,N,0.5,M,1.8,K*54
$SDDPT,5.32,-1.09,*5A
$GPGGA,185444,4737.7541,N,12223.4729,W,2,9,0.80,12.60,M,*28
$IIROT,5.81,A*1A
$SDDBT,17.45,f,5.32,M,2.90,F*0E
$SDDPT,5.32,-1.09,*5A
$GPGGA,185445,4737.7541,N,12223.4729,W,2,9,0.80,12.50,M,*2A
$GPGLL,4737.7541,N,12223.4729,W,185445,A,D*51
$GPGSA,A,3,,,,,,,,,,,,,1.7,0.8,1.4*39
$GPGSV,3,1,09,09,09,031,37,11,39,292,41,14,73,066,36,18,15,092,36*75
$GPGSV,3,2,09,19,24,233,36,22,46,086,40,24,34,305,38,31,19,159,37*7F
$HCHDG,77.0,0.0,E,16.9,E*4C
$IIMWD,283.19,T,,,1.08,N,0.56,M*1C
$IIMWV,187.79,R,1.18,N,A*35
$IIMWV,189.09,T,1.08,N,A*3B
$IIROT,5.81,A*1A
$IIVHW,,,77.0,M,0.00,N,0.00,K*1F
$IIVLW,306.59,N,306.59,N,,,*61
$IIVWR,172.2,L,1.1,N,0.6,M,2.1,K*54
$SDDPT,5.32,-1.09,*5A
$IIROT,5.81,A*1A
$SDDBT,17.45,f,5.32,M,2.90,F*0E
$SDDPT,5.32,-1.09,*5A
$GPGGA,185447,4737.7541,N,12223.4730,W,2,9,0.80,12.40,M,*21
$GPGLL,4737.7541,N,12223.4730,W,185447,A,D*5B
$IIMTW,12.79,C*2E
$IIMWD,283.19,T,,,1.08,N,0.56,M*1C
$IIMWV,189.09,T,1.08,N,A*3B
$IIROT,5.81,A*1A
$IIVLW,306.59,N,306.59,N,,,*61
$IIVTG,268.0,T,,,0.0,N,0.1,K*37
$IIZDA,185447,01,04,2011,,*53
$SDDPT,5.32,-1.09,*5A
$GPGGA,185448,4737.7541,N,12223.4730,W,2,9,0.80,12.30,M,*29
$IIROT,5.81,A*1A
$SDDBT,17.45,f,5.32,M,2.90,F*0E
$SDDPT,5.32,-1.09,*5A
$GPGGA,185449,4737.7539,N,12223.4730,W,2,9,0.80,12.20,M,*26
$GPGLL,4737.7539,N,12223.4730,W,185449,A,D*5A
$GPGSA,A,3,,,,,,,,,,,,,1.7,0.8,1.4*39
$GPGSV,3,1,09,09,09,031,36,11,40,292,41,14,72,066,35,18,15,092,36*78
$GPGSV,3,2,09,19,24,233,38,22,46,086,41,24,34,305,40,31,19,159,38*70
$HCHDG,77.1,0.0,E,16.9,E*4D
$IIMWD,270.79,T,,,0.99,N,0.51,M*18
$IIMWV,178.49,R,1.18,N,A*36
$IIMWV,180.19,T,0.99,N,A*3A
$IIROT,5.81,A*1A
$IIVHW,,,77.1,M,0.00,N,0.00,K*1E
$IIVLW,306.59,N,306.59,N,,,*61
$IIVWR,178.4,R,1.1,N,0.6,M,2.1,K*46
$SDDPT,5.32,-1.09,*5A
$IIROT,5.81,A*1A
$SDDBT,17.45,f,5.32,M,2.90,F*0E
$SDDPT,5.32,-1.09,*5A
$GPGGA,185451,4737.7538,N,12223.4732,W,2,9,0.80,12.00,M,*2E
$GPGLL,4737.7538,N,12223.4732,W,185451,A,D*50
$IIMTW,12.80,C*28
$IIMWD,270.09,T,,,0.99,N,0.51,M*1F
$IIMWV,176.29,T,0.99,N,A*30
$IIROT,0.00,A*16
$IIVLW,306.59,N,306.59,N,,,*61
$IIVTG,265.9,T,,,0.0,N,0.1,K*33
$IIVWR,175.7,R,1.0,N,0.5,M,2.0,K*4B
$SDDPT,5.32,-1.09,*5A
$GPGGA,185452,4737.7538,N,12223.4732,W,2,9,0.80,12.00,M,*2D
$IIROT,5.81,A*1A
$SDDBT,17.45,f,5.32,M,2.90,F*0E
$SDDPT,5.32,-1.09,*5A
$GPGGA,185453,4737.7538,N,12223.4732,W,2,9,0.80,11.90,M,*26
$GPGLL,4737.7538,N,12223.4732,W,185453,A,D*52
$GPGSA,A,3,,,,,,,,,,,,,1.7,0.8,1.4*39
$GPGSV,3,1,09,09,09,031,36,11,40,292,40,14,72,066,34,18,15,092,36*78
$GPGSV,3,2,09,19,24,233,38,22,46,086,41,24,34,305,40,31,19,159,38*70
$HCHDG,77.2,0.0,E,16.9,E*4E
$IIMWD,270.59,T,,,0.99,N,0.51,M*1A
$IIMWV,176.29,T,0.99,N,A*30
$IIROT,5.81,A*1A
$IIVHW,,,77.2,M,0.00,N,0.00,K*1D
$IIVTG,264.2,T,,,0.0,N,0.1,K*39
$IIVWR,175.6,R,0.9,N,0.5,M,1.8,K*49
$SDDPT,5.32,-1.09,*5A
$IIROT,11.69,A*29
$SDDPT,5.46,-1.09,*59
$GPGGA,185455,4737.7538,N,12223.4730,W,2,9,0.80,11.90,M,*22
$GPGLL,4737.7538,N,12223.4730,W,185455,A,D*56
$IIMTW,12.80,C*28
$IIMWD,272.29,T,,,0.99,N,0.51,M*1F
$IIMWV,178.99,T,0.99,N,A*35
$IIROT,0.00,A*16
$IIVLW,306.59,N,306.59,N,,,*61
$IIVTG,264.4,T,,,0.0,N,0.0,K*3E
$IIVWR,178.9,R,0.9,N,0.5,M,1.8,K*4B
$SDDPT,5.32,-1.09,*5A
$GPGGA,185456,4737.7538,N,12223.4729,W,2,9,0.80,11.80,M,*28
$IIROT,5.81,A*1A
$SDDPT,5.32,-1.09,*5A
$GPGGA,185457,4737.7539,N,12223.4729,W,2,9,0.80,11.80,M,*28
$GPGLL,4737.7539,N,12223.4729,W,185457,A,D*5D
$GPGSA,A,3,,,,,,,,,,,,,1.7,0.8,1.4*39
$GPGSV,3,1,09,09,09,031,37,11,40,292,40,14,72,066,33,18,15,092,35*7D
$GPGSV,3,2,09,19,24,233,38,22,46,086,41,24,34,305,42,31,19,159,38*72
$HCHDG,77.2,0.0,E,16.9,E*4E
$IIMWD,282.19,T,,,0.79,N,0.41,M*1C
$IIMWV,187.79,R,0.89,N,A*3C
$IIMWV,187.89,T,0.79,N,A*3A
$GPRMC,185457,A,4737.7539,N,12223.4729,W,0.00,264.79,010411,16.99,E,D*0D
$IIVHW,,,77.2,M,0.00,N,0.00,K*1D
$IIVLW,306.59,N,306.59,N,,,*61
$IIVWR,172.2,L,0.8,N,0.4,M,1.6,K*5A
$SDDPT,5.32,-1.09,*5A
$IIROT,5.81,A*1A
$SDDPT,5.32,-1.09,*5A
$GPGGA,185459,4737.7539,N,12223.4729,W,2,9,0.80,11.80,M,*26
$GPGLL,4737.7539,N,12223.4729,W,185459,A,D*53
$IIMTW,12.80,C*28
$IIMWD,289.69,T,,,0.89,N,0.46,M*18
$IIMWV,195.39,T,0.89,N,A*3D
$IIROT,5.81,A*1A
$IIVLW,306.59,N,306.59,N,,,*61
$IIVTG,265.7,T,,,0.0,N,0.0,K*3C
$IIVWR,163.0,L,0.8,N,0.4,M,1.6,K*58
$SDDPT,5.31,-1.09,*59
$GPGGA,185500,4737.7539,N,12223.4729,W,2,9,0.80,11.80,M,*2B
$IIROT,0.00,A*16
$SDDBT,17.45,f,5.32,M,2.90,F*0E
$SDDPT,5.32,-1.09,*5A
$GPGGA,185501,4737.7539,N,12223.4729,W,2,9,0.80,11.80,M,*2A
$GPGLL,4737.7539,N,12223.4729,W,185501,A,D*5F
$GPGSA,A,3,,,,,,,,,,,,,1.7,0.8,1.4*39
$GPGSV,3,1,09,09,09,031,37,11,40,292,40,14,72,066,33,18,15,092,35*7D
$GPGSV,3,2,09,19,24,233,38,22,46,086,40,24,34,305,43,31,19,159,38*72
$HCHDG,77.2,0.0,E,16.9,E*4E
$IIMWD,302.09,T,,,0.69,N,0.36,M*15
$IIMWV,196.99,R,0.79,N,A*3D
$IIMWV,199.39,T,0.69,N,A*3F
$IIROT,5.81,A*1A
$IIVHW,,,77.2,M,0.00,N,0.00,K*1D
$IIVLW,306.59,N,306.59,N,,,*61
$IIVWR,163.0,L,0.7,N,0.4,M,1.4,K*55
$SDDPT,5.80,-1.09,*53
$IIROT,-5.81,A*37
$SDDBT,17.45,f,5.32,M,2.90,F*0E
$SDDPT,5.32,-1.09,*5A
$GPGGA,185503,4737.7539,N,12223.4729,W,2,9,0.80,11.80,M,*28
$GPGLL,4737.7539,N,12223.4729,W,185503,A,D*5D
$IIMTW,12.80,C*28
$IIMWD,316.19,T,,,0.38,N,0.20,M*12
$IIMWV,220.19,T,0.38,N,A*38
$IIROT,0.00,A*16
$IIVLW,306.59,N,306.59,N,,,*61
$IIVTG,265.9,T,,,0.0,N,0.1,K*33
$IIVWR,150.4,L,0.4,N,0.2,M,0.8,K*59
$SDDPT,5.32,-1.09,*5A
$GPGGA,185504,4737.7539,N,12223.4729,W,2,9,0.80,11.80,M,*2F
$IIROT,5.81,A*1A
$SDDBT,17.45,f,5.32,M,2.90,F*0E
$SDDPT,5.32,-1.09,*5A
$GPGGA,185505,4737.7539,N,12223.4729,W,2,9,0.80,11.80,M,*2E
$GPGLL,4737.7539,N,12223.4729,W,185505,A,D*5B
$GPGSA,A,3,,,,,,,,,,,,,1.7,0.8,1.4*39
$GPGSV,3,1,09,09,09,031,37,11,40,292,39,14,72,066,34,18,15,092,35*74
$GPGSV,3,2,09,19,24,233,38,22,46,086,39,24,34,305,43,31,19,159,39*7D
$HCHDG,77.3,0.0,E,16.9,E*4F
$IIMWD,282.19,T,,,0.19,N,0.10,M*1E
$IIMWV,216.69,R,0.29,N,A*3C
$IIMWV,187.79,T,0.19,N,A*33
$IIROT,0.00,A*16
$IIVHW,,,77.3,M,0.00,N,0.00,K*1C
$IIVLW,306.59,N,306.59,N,,,*61
$IIVWR,143.3,L,0.2,N,0.1,M,0.5,K*54
$SDDPT,5.32,-1.09,*5A
$IIROT,0.00,A*16
$SDDBT,17.45,f,5.32,M,2.90,F*0E
$SDDPT,5.32,-1.09,*5A
$GPGGA,185507,4737.7541,N,12223.4727,W,2,9,0.80,12.00,M,*26
$GPGLL,4737.7541,N,12223.4727,W,185507,A,D*58
$IIMTW,12.81,C*29
$IIMWD,287.19,T,,,0.29,N,0.15,M*1D
$IIMWV,195.09,T,0.19,N,A*37
$IIROT,-11.69,A*04
$IIVHW,,,77.3,M,0.00,N,0.00,K*1C
$IIVTG,267.0,T,,,0.0,N,0.1,K*38
$IIVWR,172.2,L,0.2,N,0.1,M,0.5,K*57
$SDDPT,5.32,-1.09,*5A
$GPGGA,185508,4737.7541,N,12223.4726,W,2,9,0.80,12.10,M,*29
$IIROT,0.00,A*16
$SDDBT,18.53,f,5.65,M,3.08,F*04
$SDDPT,5.65,-1.09,*58
$GPGGA,185509,4737.7541,N,12223.4726,W,2,9,0.80,12.20,M,*2B
$GPGLL,4737.7541,N,12223.4726,W,185509,A,D*57
$GPGSA,A,3,,,,,,,,,,,,,1.7,0.8,1.4*39
$GPGSV,3,1,09,09,09,031,37,11,40,292,39,14,72,066,34,18,15,092,36*77
$GPGSV,3,2,09,19,24,233,38,22,46,086,40,24,34,305,43,31,19,159,38*72
$HCHDG,77.3,0.0,E,16.9,E*4F
$IIMWD,282.19,T,,,0.38,N,0.20,M*1E
$IIMWV,187.79,T,0.38,N,A*30
$IIROT,0.00,A*16
$IIVHW,,,77.3,M,0.00,N,0.00,K*1C
$IIVTG,267.7,T,,,0.0,N,0.0,K*3E
$IIVWR,172.2,L,0.3,N,0.2,M,0.7,K*57
$SDDPT,5.80,-1.09,*53
$IIROT,-11.69,A*04
$SDDBT,17.45,f,5.32,M,2.90,F*0E
$SDDPT,5.32,-1.09,*5A
$GPGGA,185511,4737.7541,N,12223.4726,W,2,9,0.80,12.30,M,*23
$GPGLL,4737.7541,N,12223.4726,W,185511,A,D*5E
$IIMTW,12.81,C*29
$IIMWD,282.39,T,,,0.38,N,0.20,M*1C
$IIMWV,187.89,T,0.38,N,A*3F
$IIROT,-5.81,A*37
$IIVHW,,,77.3,M,0.00,N,0.00,K*1C
$IIVTG,268.0,T,,,0.0,N,0.0,K*36
$IIVWR,172.2,L,0.4,N,0.2,M,0.8,K*5F
$SDDPT,5.32,-1.09,*5A
$GPGGA,185512,4737.7541,N,12223.4726,W,2,9,0.80,12.40,M,*27
$IIROT,0.00,A*16
$SDDPT,5.31,-1.09,*59
$GPGGA,185513,4737.7541,N,12223.4724,W,2,9,0.80,12.60,M,*26
$GPGLL,4737.7541,N,12223.4724,W,185513,A,D*5E
$GPGSA,A,3,,,,,,,,,,,,,1.7,0.8,1.4*39
$GPGSV,3,1,09,09,09,031,36,11,40,292,38,14,72,066,34,18,15,092,38*79
$GPGSV,3,2,09,19,24,233,38,22,46,086,40,24,34,305,43,31,19,159,36*7C
$HCHDG,77.4,0.0,E,16.9,E*48
$IIMWD,282.39,T,,,0.58,N,0.30,M*1B
$IIMWV,187.79,R,0.48,N,A*31
$IIMWV,187.89,T,0.58,N,A*39
$GPRMC,185513,A,4737.7541,N,12223.4724,W,0.00,268.29,010411,16.99,E,D*07
$IIVHW,,,77.4,M,0.00,N,0.00,K*1B
$IIVLW,306.59,N,306.59,N,,,*61
$IIVWR,172.2,L,0.4,N,0.2,M,0.8,K*5F
$SDDPT,5.32,-1.09,*5A
$IIROT,0.00,A*16
$SDDPT,5.32,-1.09,*5A
$GPGGA,185515,4737.7539,N,12223.4724,W,2,9,0.80,12.80,M,*21
$GPGLL,4737.7539,N,12223.4724,W,185515,A,D*57
$IIMTW,12.81,C*29
$IIMWD,285.29,T,,,0.48,N,0.25,M*18
$IIMWV,190.79,T,0.48,N,A*31
$IIROT,-5.81,A*37
$IIVLW,306.59,N,306.59,N,,,*61
$IIVTG,267.4,T,,,0.0,N,0.1,K*3C
$IIVWR,172.2,L,0.5,N,0.3,M,1.0,K*56
$SDDPT,5.32,-1.09,*5A
$GPGGA,185516,4737.7539,N,12223.4724,W,2,9,0.80,12.90,M,*23
$IIROT,5.81,A*1A
$SDDBT,17.45,f,5.32,M,2.90,F*0E
$SDDPT,5.32,-1.09,*5A
$GPGGA,185517,4737.7539,N,12223.4724,W,2,9,0.80,13.10,M,*2B
$GPGLL,4737.7539,N,12223.4724,W,185517,A,D*55
$GPGSA,A,3,,,,,,,,,,,,,1.7,0.8,1.4*39
$GPGSV,3,1,09,09,09,031,36,11,40,292,37,14,72,066,34,18,15,092,38*76
$GPGSV,3,2,09,19,24,233,37,22,46,086,40,24,34,305,42,31,19,159,35*71
$HCHDG,77.3,0.0,E,16.9,E*4F
$IIMWD,264.69,T,,,0.69,N,0.36,M*12
$IIMWV,172.79,R,0.69,N,A*38
$IIMWV,168.29,T,0.69,N,A*30
$IIROT,5.81,A*1A
$IIVHW,,,77.3,M,0.00,N,0.00,K*1C
$IIVLW,306.59,N,306.59,N,,,*61
$IIVWR,172.7,R,0.6,N,0.3,M,1.2,K*4C
$SDDPT,5.34,-1.09,*5C
$IIROT,11.69,A*29
$SDDBT,17.45,f,5.32,M,2.90,F*0E
$SDDPT,5.32,-1.09,*5A
$GPGGA,185519,4737.7538,N,12223.4723,W,2,9,0.80,13.40,M,*26
$GPGLL,4737.7538,N,12223.4723,W,185519,A,D*5D
$IIMTW,12.81,C*29
$IIMWD,271.99,T,,,0.48,N,0.25,M*18
$IIMWV,177.59,T,0.48,N,A*3A
$IIROT,0.00,A*16
$IIVLW,306.59,N,306.59,N,,,*61
$IIVTG,266.5,T,,,0.0,N,0.1,K*3C
$IIVWR,175.7,R,0.5,N,0.3,M,1.0,K*4A
$SDDPT,5.32,-1.09,*5A
$GPGGA,185520,4737.7538,N,12223.4723,W,2,9,0.80,13.50,M,*2D
$IIROT,11.69,A*29
$SDDBT,17.45,f,5.32,M,2.90,F*0E
$SDDPT,5.32,-1.09,*5A
$GPGGA,185521,4737.7538,N,12223.4723,W,2,9,0.80,13.70,M,*2E
$GPGLL,4737.7538,N,12223.4723,W,185521,A,D*56
$GPGSA,A,3,,,,,,,,,,,,,1.7,0.8,1.4*39
$GPGSV,3,1,09,09,09,031,35,11,40,292,39,14,72,066,35,18,15,092,37*75
$GPGSV,3,2,09,19,24,233,35,22,46,086,39,24,34,305,41,31,19,159,35*7E
$HCHDG,77.4,0.0,E,16.9,E*48
$IIMWD,265.79,T,,,0.48,N,0.25,M*13
$IIMWV,174.49,R,0.48,N,A*3E
$IIMWV,172.59,T,0.48,N,A*3F
$IIROT,5.81,A*1A
$IIVHW,,,77.4,M,0.00,N,0.00,K*1B
$IIVLW,306.59,N,306.59,N,,,*61
$IIVWR,174.4,R,0.4,N,0.2,M,0.8,K*41
$SDDPT,5.32,-1.09,*5A
$IIROT,-5.81,A*37
$SDDBT,17.45,f,5.32,M,2.90,F*0E
$SDDPT,5.32,-1.09,*5A
$GPGGA,185523,4737.7538,N,12223.4723,W,2,9,0.80,14.10,M,*2D
$GPGLL,4737.7538,N,12223.4723,W,185523,A,D*54
$IIMTW,12.81,C*29
$IIMWD,282.19,T,,,0.19,N,0.10,M*1E
$IIMWV,187.79,T,0.38,N,A*30
$IIROT,0.00,A*16
$IIVLW,306.59,N,306.59,N,,,*61
$IIVTG,267.5,T,,,0.0,N,0.0,K*3C
$IIVWR,172.2,L,0.2,N,0.1,M,0.5,K*57
$SDDPT,5.32,-1.09,*5A
$GPGGA,185524,4737.7538,N,12223.4723,W,2,9,0.80,14.20,M,*29
$IIROT,5.81,A*1A
$SDDBT,17.45,f,5.32,M,2.90,F*0E
$SDDPT,5.32,-1.09,*5A
$GPGGA,185525,4737.7538,N,12223.4723,W,2,9,0.80,14.40,M,*2E
$GPGLL,4737.7538,N,12223.4723,W,185525,A,D*52
$GPGSA,A,3,,,,,,,,,,,,,1.7,0.8,1.4*39
$GPGSV,3,1,09,09,09,031,36,11,40,292,39,14,72,066,35,18,15,092,35*74
$GPGSV,3,2,09,19,24,233,34,22,46,086,40,24,34,305,38,31,19,159,35*7F
$HCHDG,77.3,0.0,E,16.9,E*4F
$IIMWD,296.99,T,,,0.09,N,0.05,M*16
$IIMWV,202.59,T,0.09,N,A*3E
$IIROT,0.00,A*16
$IIVHW,,,77.3,M,0.00,N,0.00,K*1C
$IIVTG,266.3,T,,,0.0,N,0.1,K*3A
$IIVWR,172.2,L,0.1,N,0.1,M,0.3,K*52
$IIZDA,185525,01,04,2011,,*56
$GPGGA,185526,4737.7538,N,12223.4723,W,2,9,0.80,14.50,M,*2C
$IIROT,11.69,A*29
$SDDBT,17.45,f,5.32,M,2.90,F*0E
$GPGGA,185527,4737.7538,N,12223.4723,W,2,9,0.80,14.70,M,*2F
$SDDPT,5.32,-1.09,*5A
$IIMTW,12.82,C*2A
$IIMWD,282.29,T,,,0.19,N,0.10,M*1D
$IIMWV,187.79,T,0.19,N,A*33
$IIROT,0.00,A*16
$IIVLW,306.59,N,306.59,N,,,*61
$IIVTG,266.0,T,,,0.0,N,0.0,K*38
$IIVWR,172.2,L,0.1,N,0.1,M,0.3,K*52
$IIZDA,185527,01,04,2011,,*54
$SDDPT,5.32,-1.09,*5A
$IIROT,-5.81,A*37
$SDDBT,17.45,f,5.32,M,2.90,F*0E
$GPGGA,185529,4737.7536,N,12223.4723,W,2,9,0.80,14.90,M,*21
$SDDPT,5.32,-1.09,*5A
$GPGSA,A,3,,,,,,,,,,,,,1.7,0.8,1.4*39
$GPGSV,3,1,09,09,09,031,35,11,40,292,41,14,72,066,36,18,15,092,37*79
$GPGSV,3,2,09,19,24,233,35,22,46,086,41,24,34,305,37,31,19,159,37*72
$HCHDG,77.3,0.0,E,16.9,E*4F
$IIMWD,297.69,T,,,0.09,N,0.05,M*18
$IIMWV,187.79,R,0.19,N,A*35
$IIMWV,203.29,T,0.09,N,A*38
$GPRMC,185529,A,4737.7536,N,12223.4723,W,0.09,265.49,010411,16.99,E,D*0B
$IIVHW,,,77.3,M,0.00,N,0.00,K*1C
$IIVLW,306.59,N,306.59,N,,,*61
$IIVWR,172.2,L,0.1,N,0.1,M,0.3,K*52
$IIZDA,185529,01,04,2011,,*5A
$GPGGA,185530,4737.7536,N,12223.4723,W,2,9,0.80,15.10,M,*20
$IIROT,0.00,A*16
$SDDBT,17.45,f,5.32,M,2.90,F*0E
$GPGGA,185531,4737.7536,N,12223.4723,W,2,9,0.80,15.20,M,*22
$SDDPT,5.32,-1.09,*5A
$IIMTW,12.81,C*29
$IIMWD,282.19,T,,,0.19,N,0.10,M*1E
$IIMWV,187.89,T,0.19,N,A*3C
$IIROT,0.00,A*16
$IIVLW,306.59,N,306.59,N,,,*61
$IIVTG,264.7,T,,,0.0,N,0.0,K*3D
$IIVWR,172.2,L,0.3,N,0.2,M,0.7,K*57
$IIZDA,185531,01,04,2011,,*53
$SDDPT,5.32,-1.09,*5A
$IIROT,0.00,A*16
$SDDBT,17.45,f,5.32,M,2.90,F*0E
$SDDPT,5.32,-1.09,*5A
$GPGGA,185533,4737.7536,N,12223.4723,W,2,9,0.80,15.50,M,*27
$GPGLL,4737.7536,N,12223.4723,W,185533,A,D*5B
$GPGSA,A,3,,,,,,,,,,,,,1.7,0.8,1.4*39
$GPGSV,3,1,09,09,09,031,37,11,40,292,41,14,72,066,36,18,15,092,37*7B
$GPGSV,3,2,09,19,24,233,36,22,46,086,41,24,34,305,36,31,19,159,38*7F
$HCHDG,77.2,0.0,E,16.9,E*4E
$IIMWD,282.19,T,,,0.38,N,0.20,M*1E
$IIMWV,187.79,R,0.38,N,A*36
$IIMWV,187.89,T,0.38,N,A*3F
$GPRMC,185533,A,4737.7536,N,12223.4723,W,0.00,264.39,010411,16.99,E,D*0F
$IIVHW,,,77.2,M,0.00,N,0.00,K*1D
$IIVLW,306.59,N,306.59,N,,,*61
$IIVWR,172.2,L,0.3,N,0.2,M,0.7,K*57
$SDDPT,5.32,-1.09,*5A
$IIROT,0.00,A*16
$SDDPT,5.32,-1.09,*5A
$GPGGA,185535,4737.7538,N,12223.4723,W,2,9,0.80,15.70,M,*2D
$GPGLL,4737.7538,N,12223.4723,W,185535,A,D*53
$IIMTW,12.82,C*2A
$IIMWD,307.39,T,,,0.48,N,0.25,M*12
$IIMWV,212.89,T,0.48,N,A*37
$IIROT,0.00,A*16
$IIVHW,,,77.3,M,0.00,N,0.00,K*1C
$IIVTG,264.8,T,,,0.0,N,0.0,K*32
$IIVWR,147.6,L,0.4,N,0.2,M,0.8,K*5D
$SDDPT,5.32,-1.09,*5A
$GPGGA,185536,4737.7538,N,12223.4723,W,2,9,0.80,15.80,M,*21
$IIROT,0.00,A*16
$SDDPT,5.32,-1.09,*5A
$GPGGA,185537,4737.7538,N,12223.4723,W,2,9,0.80,15.90,M,*21
$GPGLL,4737.7538,N,12223.4723,W,185537,A,D*51
$GPGSA,A,3,,,,,,,,,,,,,1.7,0.8,1.4*39
$GPGSV,3,1,09,09,09,031,37,11,40,292,42,14,72,066,36,18,15,092,36*79
$GPGSV,3,2,09,19,24,233,37,22,46,086,41,24,34,305,38,31,19,159,39*71
$HCHDG,77.3,0.0,E,16.9,E*4F
$IIMWD,309.59,T,,,0.38,N,0.20,M*18
$IIMWV,218.19,R,0.38,N,A*35
$IIMWV,215.19,T,0.38,N,A*3E
$GPRMC,185537,A,4737.7538,N,12223.4723,W,0.00,264.69,010411,16.99,E,D*00
$IIVHW,,,77.3,M,0.00,N,0.00,K*1C
$IIVLW,306.59,N,306.59,N,,,*61
$IIVWR,141.8,L,0.3,N,0.2,M,0.7,K*5D
$SDDPT,5.32,-1.09,*5A
$IIROT,-5.81,A*37
$SDDPT,5.31,-1.09,*59
$GPGGA,185539,4737.7538,N,12223.4723,W,2,9,0.80,16.00,M,*25
$GPGLL,4737.7538,N,12223.4723,W,185539,A,D*5F
$IIMTW,12.83,C*2B
$IIMWD,12.09,T,,,0.19,N,0.10,M*24
$IIMWV,277.68,T,0.19,N,A*3F
$IIROT,-5.81,A*37
$IIVHW,,,77.3,M,0.00,N,0.00,K*1C
$IIVTG,264.7,T,,,0.0,N,0.0,K*3D
$IIVWR,112.4,L,0.1,N,0.1,M,0.3,K*52
$SDDPT,5.32,-1.09,*5A
$GPGGA,185540,4737.7538,N,12223.4724,W,2,9,0.80,16.10,M,*2D
$IIROT,-5.81,A*37
$SDDPT,5.32,-1.09,*5A
$GPGGA,185541,4737.7538,N,12223.4724,W,2,9,0.80,16.20,M,*2F
$GPGLL,4737.7538,N,12223.4724,W,185541,A,D*57
$GPGSA,A,3,,,,,,,,,,,,,1.7,0.8,1.4*39
$GPGSV,3,1,09,09,09,031,38,11,40,292,42,14,72,066,37,18,15,092,37*76
$GPGSV,3,2,09,19,24,233,38,22,46,086,41,24,34,305,38,31,19,159,39*7E
$HCHDG,77.3,0.0,E,16.9,E*4F
$IIMWD,28.19,T,,,0.29,N,0.15,M*2A
$IIMWV,277.79,R,0.29,N,A*3A
$IIMWV,293.78,T,0.29,N,A*37
$GPRMC,185541,A,4737.7538,N,12223.4724,W,0.09,263.99,010411,16.99,E,D*07
$IIVHW,,,77.3,M,0.00,N,0.00,K*1C
$IIVLW,306.59,N,306.59,N,,,*61
$IIVWR,82.2,L,0.2,N,0.1,M,0.5,K*69
$IIZDA,185541,01,04,2011,,*54
$SDDPT,5.32,-1.09,*5A
$IIROT,0.00,A*16
$SDDPT,5.32,-1.09,*5A
$GPGGA,185543,4737.7539,N,12223.4726,W,2,9,0.80,16.30,M,*2F
$GPGLL,4737.7539,N,12223.4726,W,185543,A,D*56
$IIMTW,12.83,C*2B
$IIMWD,12.09,T,,,0.19,N,0.10,M*24
$IIMWV,277.68,T,0.19,N,A*3F
$IIROT,-5.81,A*37
$IIVHW,,,77.3,M,0.00,N,0.00,K*1C
$IIVTG,263.4,T,,,0.0,N,0.0,K*39
$IIVWR,82.2,L,0.1,N,0.1,M,0.3,K*6C
$SDDPT,5.32,-1.09,*5A
$GPGGA,185544,4737.7539,N,12223.4726,W,2,9,0.80,16.30,M,*28
$IIROT,-5.81,A*37
$SDDPT,5.32,-1.09,*5A
$GPGGA,185545,4737.7539,N,12223.4726,W,2,9,0.80,16.40,M,*2E
$GPGLL,4737.7539,N,12223.4726,W,185545,A,D*50
$GPGSA,A,3,,,,,,,,,,,,,1.7,0.8,1.4*39
$GPGSV,3,1,09,09,09,031,37,11,40,292,42,14,72,066,37,18,15,092,36*78
$GPGSV,3,2,09,19,24,233,38,22,46,086,41,24,34,305,40,31,19,159,39*71
$HCHDG,77.3,0.0,E,16.9,E*4F
$IIMWD,12.09,T,,,0.19,N,0.10,M*24
$IIMWV,277.79,R,0.19,N,A*39
$IIMWV,277.68,T,0.19,N,A*3F
$GPRMC,185545,A,4737.7539,N,12223.4726,W,0.00,263.19,010411,16.99,E,D*01
$IIROT,5.81,A*1A
$IIVLW,306.59,N,306.59,N,,,*61
$IIVWR,82.2,L,0.1,N,0.1,M,0.3,K*6C
$IIZDA,185545,01,04,2011,,*50
$GPGGA,185546,4737.7541,N,12223.4726,W,2,9,0.80,16.40,M,*22
$IIROT,0.00,A*16
$SDDBT,17.45,f,5.32,M,2.90,F*0E
$SDDPT,5.32,-1.09,*5A
$GPGLL,4737.7541,N,12223.4726,W,185547,A,D*5D
$IIMTW,12.83,C*2B
$IIMWD,0.00,T,,,0.00,N,0.00,M*17
$IIMWV,265.59,T,0.00,N,A*36
$IIVHW,,,77.3,M,0.00,N,0.00,K*1C
$IIVLW,306.59,N,306.59,N,,,*61
$IIVTG,263.0,T,,,0.0,N,0.0,K*3D
$IIVWR,7.7,R,0.0,N,0.0,M,0.0,K*49
$IIZDA,185547,01,04,2011,,*52
$SDDPT,5.34,-1.09,*5C
$IIROT,-5.81,A*37
$SDDBT,17.51,f,5.34,M,2.91,F*0C
$GPGGA,185549,4737.7541,N,12223.4726,W,2,9,0.80,16.50,M,*2C
$SDDPT,5.34,-1.09,*5C
$GPGSA,A,3,,,,,,,,,,,,,1.7,0.8,1.4*39
$GPGSV,3,1,09,09,09,030,38,11,40,292,43,14,72,065,37,18,15,092,36*74
$GPGSV,3,2,09,19,24,233,38,22,46,087,41,24,35,305,41,31,19,159,40*7E
$HCHDG,77.2,0.0,E,16.9,E*4E
$IIMWD,282.19,T,,,0.19,N,0.10,M*1E
$IIMWV,187.79,R,0.29,N,A*36
$IIMWV,187.89,T,0.19,N,A*3C
$GPRMC,185549,A,4737.7541,N,12223.4726,W,0.00,262.99,010411,16.99,E,D*0B
$IIROT,-5.81,A*37
$IIVLW,306.59,N,306.59,N,,,*61
$IIVWR,172.2,L,0.2,N,0.1,M,0.5,K*57
$IIZDA,185549,01,04,2011,,*5C
$GPGGA,185550,4737.7541,N,12223.4726,W,2,9,0.80,16.50,M,*24
$IIROT,0.00,A*16
$SDDBT,17.45,f,5.32,M,2.90,F*0E
$GPGGA,185551,4737.7542,N,12223.4726,W,2,9,0.80,16.50,M,*26
$SDDPT,5.32,-1.09,*5A
$IIMTW,12.83,C*2B
$IIMWD,282.19,T,,,0.38,N,0.20,M*1E
$IIMWV,187.79,T,0.38,N,A*30
$IIVHW,,,77.3,M,0.00,N,0.00,K*1C
$IIROT,5.81,A*1A
$IIVTG,262.5,T,,,0.0,N,0.0,K*39
$IIVWR,172.2,L,0.3,N,0.2,M,0.7,K*57
$IIZDA,185551,01,04,2011,,*55
$SDDPT,5.34,-1.09,*5C
$IIROT,0.00,A*16
$SDDBT,17.45,f,5.32,M,2.90,F*0E
$GPGGA,185553,4737.7542,N,12223.4727,W,2,9,0.80,16.50,M,*25
$GPGLL,4737.7542,N,12223.4727,W,185553,A,D*5A
$SDDPT,5.32,-1.09,*5A
$GPGSV,3,1,09,09,09,030,38,11,40,292,42,14,72,065,38,18,15,092,37*7B
$GPGSV,3,2,09,19,24,233,36,22,46,087,41,24,35,305,41,31,19,159,40*70
$HCHDG,77.3,0.0,E,16.9,E*4F
$IIMWD,282.29,T,,,0.38,N,0.20,M*1D
$IIMWV,187.79,R,0.38,N,A*36
$IIMWV,187.89,T,0.38,N,A*3F
$GPRMC,185553,A,4737.7542,N,12223.4727,W,0.00,262.29,010411,16.99,E,D*09
$IIROT,0.00,A*16
$IIVLW,306.59,N,306.59,N,,,*61
$IIVWR,172.2,L,0.3,N,0.2,M,0.7,K*57
$IIZDA,185553,01,04,2011,,*57
$GPGGA,185554,4737.7544,N,12223.4727,W,2,9,0.80,16.50,M,*24
$IIROT,0.00,A*16
$SDDBT,17.45,f,5.32,M,2.90,F*0E
$GPGGA,185555,4737.7544,N,12223.4727,W,2,9,0.80,16.50,M,*25
$SDDPT,5.32,-1.09,*5A
$IIMTW,12.83,C*2B
$IIMWD,282.19,T,,,0.19,N,0.10,M*1E
$IIMWV,187.79,T,0.19,N,A*33
$IIVHW,,,77.3,M,0.00,N,0.00,K*1C
$IIROT,0.00,A*16
$IIVTG,261.0,T,,,0.0,N,0.0,K*3F
$IIVWR,172.2,L,0.2,N,0.1,M,0.5,K*57
$IIZDA,185555,01,04,2011,,*51
$SDDPT,5.32,-1.09,*5A
$IIROT,-11.69,A*04
$SDDBT,17.45,f,5.32,M,2.90,F*0E
$GPGGA,185557,4737.7544,N,12223.4729,W,2,9,0.80,16.40,M,*28
$GPGLL,4737.7544,N,12223.4729,W,185557,A,D*56
$SDDPT,5.32,-1.09,*5A
$GPGSV,3,1,09,09,09,030,39,11,40,292,42,14,72,065,39,18,15,092,37*7B
$GPGSV,3,2,09,19,24,233,36,22,46,087,41,24,35,305,41,31,19,159,40*70
$HCHDG,77.3,0.0,E,16.9,E*4F
$IIMWD,192.19,T,,,0.09,N,0.05,M*19
$IIMWV,97.79,R,0.09,N,A*04
$IIMWV,97.79,T,0.09,N,A*02
$GPRMC,185557,A,4737.7544,N,12223.4729,W,0.00,259.99,010411,16.99,E,D*06
$IIROT,0.00,A*16
$IIVLW,306.59,N,306.59,N,,,*61
$IIVWR,97.7,R,0.0,N,0.0,M,0.1,K*71
$IIZDA,185557,01,04,2011,,*53
$GPGGA,185558,4737.7544,N,12223.4729,W,2,9,0.80,16.40,M,*27
$IIROT,11.69,A*29
$SDDBT,17.45,f,5.32,M,2.90,F*0E
$GPGGA,185559,4737.7544,N,12223.4729,W,2,9,0.80,16.40,M,*26
$SDDPT,5.32,-1.09,*5A
$IIMTW,12.83,C*2B
$IIMWD,192.19,T,,,0.19,N,0.10,M*1C
$IIMWV,97.79,T,0.19,N,A*03
$IIVHW,,,77.3,M,0.00,N,0.00,K*1C
$IIROT,11.69,A*29
$IIVTG,260.5,T,,,0.0,N,0.0,K*3B
$IIVWR,97.7,R,0.1,N,0.1,M,0.3,K*73
$IIZDA,185559,01,04,2011,,*5D
$SDDPT,5.32,-1.09,*5A
$IIROT,5.81,A*1A
$SDDBT,17.45,f,5.32,M,2.90,F*0E
$GPGGA,185601,4737.7544,N,12223.4730,W,2,9,0.80,16.30,M,*27
$GPGLL,4737.7544,N,12223.4730,W,185601,A,D*5E
$GPGSA,A,3,,,,,,,,,,,,,1.7,0.8,1.4*39
$GPGSV,3,1,09,09,09,030,39,11,40,292,42,14,72,065,39,18,15,092,37*7B
$GPGSV,3,3,09,32,26,279,38*42
$HCHDG,77.3,0.0,E,16.9,E*4F
$IIMWD,139.29,T,,,0.29,N,0.15,M*18
$IIMWV,58.09,R,0.29,N,A*02
$IIMWV,43.59,T,0.29,N,A*0B
$GPRMC,185601,A,4737.7544,N,12223.4730,W,0.09,260.79,010411,16.99,E,D*03
$IIROT,5.81,A*1A
$IIVLW,306.59,N,306.59,N,,,*61
$IIVWR,58.0,R,0.2,N,0.1,M,0.5,K*72
$IIZDA,185601,01,04,2011,,*53
$GPGGA,185602,4737.7544,N,12223.4732,W,2,9,0.80,16.20,M,*27
$IIROT,5.81,A*1A
$SDDBT,17.45,f,5.32,M,2.90,F*0E
$GPGGA,185603,4737.7544,N,12223.4732,W,2,9,0.80,16.10,M,*25
$SDDPT,5.32,-1.09,*5A
$IIMTW,12.83,C*2B
$IIMWD,131.09,T,,,0.38,N,0.20,M*14
$IIMWV,44.19,T,0.29,N,A*08
$GPRMC,185603,A,4737.7544,N,12223.4732,W,0.09,261.39,010411,16.99,E,D*06
$IIVLW,306.59,N,306.59,N,,,*61
$IIVTG,261.3,T,,,0.0,N,0.1,K*3D
$IIVWR,58.8,R,0.2,N,0.1,M,0.5,K*7A
$IIZDA,185603,01,04,2011,,*51
$SDDPT,5.32,-1.09,*5A
$IIROT,-5.81,A*37
$SDDBT,17.45,f,5.32,M,2.90,F*0E
$GPGGA,185605,4737.7544,N,12223.4733,W,2,9,0.80,15.90,M,*29
$GPGLL,4737.7544,N,12223.4733,W,185605,A,D*59
$GPGSA,A,3,,,,,,,,,,,,,1.7,0.8,1.4*39
$GPGSV,3,1,09,09,09,030,40,11,40,292,40,14,72,065,39,18,15,092,37*77
$GPGSV,3,3,09,32,26,279,38*42
$HCHDG,77.3,0.0,E,16.9,E*4F
$IIMWD,131.69,T,,,0.48,N,0.25,M*10
$IIMWV,43.39,R,0.38,N,A*0B
$IIMWV,37.29,T,0.48,N,A*08
$GPRMC,185605,A,4737.7544,N,12223.4733,W,0.09,261.69,010411,16.99,E,D*04
$IIROT,0.00,A*16
$IIVLW,306.59,N,306.59,N,,,*61
$IIVWR,43.3,R,0.3,N,0.2,M,0.7,K*7B
$IIZDA,185605,01,04,2011,,*57
$GPGGA,185606,4737.7544,N,12223.4733,W,2,9,0.80,15.80,M,*2B
$IIROT,5.81,A*1A
$SDDBT,17.45,f,5.32,M,2.90,F*0E
$GPGGA,185607,4737.7544,N,12223.4735,W,2,9,0.80,15.70,M,*23
$SDDPT,5.32,-1.09,*5A
$IIMTW,12.83,C*2B
$IIMWD,137.29,T,,,0.38,N,0.20,M*10
$IIMWV,41.29,T,0.38,N,A*0E
$IIVHW,,,77.3,M,0.00,N,0.00,K*1C
$IIVLW,306.59,N,306.59,N,,,*61
$IIVTG,260.9,T,,,0.0,N,0.0,K*37
$IIVWR,48.1,R,0.3,N,0.2,M,0.7,K*72
$IIZDA,185607,01,04,2011,,*55
$SDDPT,5.32,-1.09,*5A
$IIROT,0.00,A*16
$SDDBT,17.45,f,5.32,M,2.90,F*0E
$GPGGA,185609,4737.7544,N,12223.4735,W,2,9,0.80,15.40,M,*2E
$GPGLL,4737.7544,N,12223.4735,W,185609,A,D*53
$GPGSA,A,3,,,,,,,,,,,,,1.7,0.8,1.4*39
$GPGSV,3,1,09,09,09,030,39,11,40,292,40,14,72,065,39,18,15,092,36*78
$GPGSV,3,3,09,32,26,279,38*42
$HCHDG,77.4,0.0,E,16.9,E*48
$IIMWD,144.39,T,,,0.38,N,0.20,M*15
$IIMWV,48.79,R,0.38,N,A*04
$IIMWV,49.89,T,0.38,N,A*0C
$GPRMC,185609,A,4737.7544,N,12223.4735,W,0.00,260.69,010411,16.99,E,D*06
$IIROT,-5.81,A*37
$IIVLW,306.59,N,306.59,N,,,*61
$IIVWR,48.7,R,0.3,N,0.2,M,0.7,K*74
$IIZDA,185609,01,04,2011,,*5B
$GPGGA,185610,4737.7544,N,12223.4735,W,2,9,0.80,15.30,M,*21
$IIROT,5.81,A*1A
$SDDBT,17.45,f,5.32,M,2.90,F*0E
$GPGGA,185611,4737.7544,N,12223.4736,W,2,9,0.80,15.20,M,*22
$SDDPT,5.32,-1.09,*5A
$IIMTW,12.84,C*2C
$IIMWD,131.19,T,,,0.48,N,0.25,M*17
$IIMWV,35.09,T,0.38,N,A*0F
$IIVHW,,,77.4,M,0.00,N,0.00,K*1B
$IIROT,0.00,A*16
$IIVTG,259.7,T,,,0.0,N,0.1,K*32
$IIVWR,42.6,R,0.4,N,0.2,M,0.8,K*77
$IIZDA,185611,01,04,2011,,*52
$SDDPT,5.32,-1.09,*5A
$IIROT,0.00,A*16
$SDDBT,17.45,f,5.32,M,2.90,F*0E
$GPGGA,185613,4737.7544,N,12223.4736,W,2,9,0.80,14.90,M,*2A
$GPGLL,4737.7544,N,12223.4736,W,185613,A,D*5B
$GPGSA,A,3,,,,,,,,,,,,,1.7,0.8,1.4*39
$GPGSV,3,1,09,09,09,030,37,11,40,292,40,14,72,065,38,18,15,092,36*77
$GPGSV,3,2,09,19,24,233,37,22,46,087,40,24,35,305,41,31,19,159,37*70
$GPGSV,3,3,09,32,26,279,37*4D
$HCHDG,77.4,0.0,E,16.9,E*48
$IIMWD,142.59,T,,,0.38,N,0.20,M*15
$IIMWV,45.99,R,0.38,N,A*07
$IIMWV,48.09,T,0.38,N,A*05
$GPRMC,185613,A,4737.7544,N,12223.4736,W,0.09,259.99,010411,16.99,E,D*02
$IIROT,5.81,A*1A
$IIVTG,259.9,T,,,0.0,N,0.1,K*3C
$IIVWR,45.9,R,0.3,N,0.2,M,0.7,K*77
$IIZDA,185613,01,04,2011,,*50
$GPGGA,185614,4737.7542,N,12223.4738,W,2,9,0.80,14.70,M,*2B
$IIROT,5.81,A*1A
$SDDBT,17.45,f,5.32,M,2.90,F*0E
$GPGGA,185615,4737.7542,N,12223.4738,W,2,9,0.80,14.60,M,*2B
$SDDPT,5.32,-1.09,*5A
$IIMTW,12.84,C*2C
$IIMWD,147.89,T,,,0.38,N,0.20,M*1D
$IIMWV,65.79,T,0.38,N,A*0D
$IIVHW,,,77.4,M,0.00,N,0.00,K*1B
$IIROT,0.00,A*16
$IIVTG,259.7,T,,,0.0,N,0.0,K*33
$IIVWR,49.9,R,0.2,N,0.1,M,0.5,K*7B
$IIZDA,185615,01,04,2011,,*56
$SDDPT,5.32,-1.09,*5A
$IIROT,0.00,A*16
$SDDBT,17.45,f,5.32,M,2.90,F*0E
$GPGGA,185617,4737.7542,N,12223.4738,W,2,9,0.80,14.30,M,*2C
$GPGLL,4737.7542,N,12223.4738,W,185617,A,D*57
$GPGSA,A,3,,,,,,,,,,,,,1.7,0.8,1.4*39
$GPGSV,3,1,09,09,09,030,37,11,40,292,40,14,72,065,37,18,15,092,36*78
$GPGSV,3,3,09,32,26,279,37*4D
$HCHDG,77.4,0.0,E,16.9,E*48
$IIMWD,146.79,T,,,0.38,N,0.20,M*13
$IIMWV,53.49,R,0.38,N,A*0D
$IIMWV,52.29,T,0.38,N,A*0C
$GPRMC,185617,A,4737.7542,N,12223.4738,W,0.00,259.79,010411,16.99,E,D*09
$IIROT,5.81,A*1A
$IIVLW,306.59,N,306.59,N,,,*61
$IIVWR,53.4,R,0.3,N,0.2,M,0.7,K*7D
$IIZDA,185617,01,04,2011,,*54
$GPGGA,185618,4737.7542,N,12223.4738,W,2,9,0.80,14.20,M,*22
$IIROT,5.81,A*1A
$SDDBT,17.45,f,5.32,M,2.90,F*0E
$GPGGA,185619,4737.7541,N,12223.4738,W,2,9,0.80,14.10,M,*23
$SDDPT,5.32,-1.09,*5A
$IIMTW,12.84,C*2C
$IIMWD,145.79,T,,,0.48,N,0.25,M*12
$IIMWV,53.89,T,0.48,N,A*00
$GPRMC,185619,A,4737.7541,N,12223.4738,W,0.09,259.39,010411,16.99,E,D*09
$IIVLW,306.59,N,306.59,N,,,*61
$IIVTG,259.3,T,,,0.0,N,0.1,K*36
$IIVWR,64.6,R,0.4,N,0.2,M,0.8,K*73
$IIZDA,185619,01,04,2011,,*5A
$SDDPT,5.32,-1.09,*5A
$IIROT,0.00,A*16
$SDDBT,17.45,f,5.32,M,2.90,F*0E
$GPGGA,185621,4737.7541,N,12223.4738,W,2,9,0.80,13.80,M,*26
$GPGLL,4737.7541,N,12223.4738,W,185621,A,D*51
$GPGSA,A,3,,,,,,,,,,,,,1.7,0.8,1.4*39
$GPGSV,3,1,09,09,09,030,35,11,40,291,40,14,72,065,37,18,15,092,36*79
$GPGSV,3,3,09,32,26,279,38*42
$HCHDG,77.2,0.0,E,16.9,E*4E
$IIMWD,126.99,T,,,0.38,N,0.20,M*1B
$IIMWV,47.79,R,0.38,N,A*0B
$IIMWV,39.09,T,0.38,N,A*03
$GPRMC,185621,A,4737.7541,N,12223.4738,W,0.09,257.89,010411,16.99,E,D*07
$IIROT,5.81,A*1A
$IIVLW,306.59,N,306.59,N,,,*61
$IIVWR,47.7,R,0.3,N,0.2,M,0.7,K*7B
$IIZDA,185621,01,04,2011,,*51
$GPGGA,185622,4737.7541,N,12223.4738,W,2,9,0.80,13.70,M,*2A
$IIROT,5.81,A*1A
$SDDBT,17.45,f,5.32,M,2.90,F*0E
$GPGGA,185623,4737.7541,N,12223.4738,W,2,9,0.80,13.60,M,*2A
$SDDPT,5.32,-1.09,*5A
$IIMTW,12.84,C*2C
$IIMWD,135.99,T,,,0.38,N,0.20,M*19
$IIMWV,41.69,T,0.38,N,A*0A
$IIVHW,,,77.2,M,0.00,N,0.00,K*1D
$IIVLW,306.59,N,306.59,N,,,*61
$IIVTG,258.3,T,,,0.0,N,0.1,K*37
$IIVWR,53.4,R,0.3,N,0.2,M,0.7,K*7D
$IIZDA,185623,01,04,2011,,*53
$SDDPT,5.31,-1.09,*59
$IIROT,5.81,A*1A
$SDDBT,17.51,f,5.34,M,2.91,F*0C
$GPGGA,185625,4737.7541,N,12223.4738,W,2,9,0.80,13.30,M,*29
$GPGLL,4737.7541,N,12223.4738,W,185625,A,D*55
$GPGSA,A,3,,,,,,,,,,,,,1.7,0.8,1.4*39
$GPGSV,3,1,09,09,09,030,36,11,40,291,39,14,72,065,36,18,15,092,37*74
$GPGSV,3,3,09,32,26,279,37*4D
$HCHDG,77.2,0.0,E,16.9,E*4E
$IIMWD,102.09,T,,,0.19,N,0.10,M*14
$IIMWV,7.79,R,0.19,N,A*3C
$IIMWV,7.69,T,0.19,N,A*3B
$GPRMC,185625,A,4737.7541,N,12223.4738,W,0.00,258.79,010411,16.99,E,D*0A
$IIROT,5.81,A*1A
$IIVLW,306.59,N,306.59,N,,,*61
$IIVWR,7.7,R,0.1,N,0.1,M,0.3,K*4A
$IIZDA,185625,01,04,2011,,*55
$GPGGA,185626,4737.7541,N,12223.4738,W,2,9,0.80,13.30,M,*2A
$IIROT,5.81,A*1A
$SDDBT,17.45,f,5.32,M,2.90,F*0E
$GPGGA,185627,4737.7541,N,12223.4738,W,2,9,0.80,13.20,M,*2A
$SDDPT,5.32,-1.09,*5A
$IIMTW,12.84,C*2C
$IIMWD,93.59,T,,,0.19,N,0.10,M*28
$IIMWV,1.39,T,0.29,N,A*3B
$IIVHW,,,77.3,M,0.00,N,0.00,K*1C
$IIVLW,306.59,N,306.59,N,,,*61
$IIVTG,256.4,T,,,0.0,N,0.1,K*3E
$IIZDA,185627,01,04,2011,,*57
$SDDPT,5.32,-1.09,*5A
$IIROT,0.00,A*16
$SDDBT,17.45,f,5.32,M,2.90,F*0E
$GPGGA,185629,4737.7541,N,12223.4739,W,2,9,0.80,13.00,M,*27
$GPGLL,4737.7541,N,12223.4739,W,185629,A,D*58
$GPGSA,A,3,,,,,,,,,,,,,1.7,0.8,1.4*39
$GPGSV,3,1,09,09,09,030,37,11,40,291,38,14,72,065,37,18,15,092,37*75
$GPGSV,3,2,09,19,23,233,36,22,45,087,41,24,35,305,38,31,20,159,36*71
$GPGSV,3,3,09,32,26,279,38*42
$HCHDG,77.3,0.0,E,16.9,E*4F
$IIMWD,95.89,T,,,0.29,N,0.15,M*25
$IIMWV,1.49,T,0.29,N,A*3C
$GPRMC,185629,A,4737.7541,N,12223.4739,W,0.09,256.89,010411,16.99,E,D*0F
$IIROT,5.81,A*1A
$IIVTG,256.8,T,,,0.0,N,0.1,K*32
$IIVWR,7.7,R,0.2,N,0.1,M,0.5,K*4F
$IIZDA,185629,01,04,2011,,*59
$GPGGA,185630,4737.7541,N,12223.4739,W,2,9,0.80,12.90,M,*27
$IIROT,5.81,A*1A
$SDDBT,17.45,f,5.32,M,2.90,F*0E
$GPGGA,185631,4737.7541,N,12223.4739,W,2,9,0.80,12.80,M,*27
$HCHDG,77.2,0.0,E,16.9,E*4E
$IIMTW,12.84,C*2C
$IIMWD,132.39,T,,,0.29,N,0.15,M*12
$IIMWV,25.59,T,0.29,N,A*0B
$IIVHW,,,77.2,M,0.00,N,0.00,K*1D
$IIROT,0.00,A*16
$IIVTG,259.6,T,,,0.0,N,0.1,K*33
$IIVWR,40.1,R,0.2,N,0.1,M,0.5,K*7A
$IIZDA,185631,01,04,2011,,*50
$SDDPT,5.32,-1.09,*5A
$IIROT,5.81,A*1A
$SDDPT,5.32,-1.09,*5A
$GPGGA,185633,4737.7541,N,12223.4741,W,2,9,0.80,12.60,M,*24
$GPGLL,4737.7541,N,12223.4741,W,185633,A,D*5C
$GPGSA,A,3,,,,,,,,,,,,,1.7,0.8,1.4*39
$GPGSV,3,1,09,09,09,030,38,11,40,291,38,14,72,065,37,18,15,092,38*75
$GPGSV,3,2,09,19,23,233,35,22,45,087,40,24,35,305,39,31,20,159,37*73
$HCHDG,77.5,0.0,E,16.9,E*49
$IIMWD,132.29,T,,,0.29,N,0.15,M*13
$IIMWV,53.49,R,0.29,N,A*0D
$IIMWV,39.39,T,0.29,N,A*00
$GPRMC,185633,A,4737.7541,N,12223.4741,W,0.09,257.79,010411,16.99,E,D*05
$IIROT,0.00,A*16
$IIVLW,306.59,N,306.59,N,,,*61
$IIVWR,53.4,R,0.2,N,0.1,M,0.5,K*7D
$IIZDA,185633,01,04,2011,,*52
$SDDPT,5.32,-1.09,*5A
$IIROT,0.00,A*16
$SDDPT,5.32,-1.09,*5A
$GPGGA,185635,4737.7542,N,12223.4741,W,2,9,0.80,12.50,M,*22
$GPGLL,4737.7542,N,12223.4741,W,185635,A,D*59
$IIMTW,12.85,C*2D
$IIMWD,136.39,T,,,0.09,N,0.05,M*15
$IIMWV,42.09,T,0.09,N,A*0D
$GPRMC,185635,A,4737.7542,N,12223.4741,W,0.09,260.69,010411,16.99,E,D*05
$IIROT,0.00,A*16
$IIVTG,260.6,T,,,0.0,N,0.1,K*39
$IIVWR,97.7,R,0.0,N,0.0,M,0.1,K*71
$SDDPT,5.32,-1.09,*5A
$GPGGA,185636,4737.7541,N,12223.4741,W,2,9,0.80,12.40,M,*23
$IIROT,0.00,A*16
$SDDPT,5.31,-1.09,*59
$GPGGA,185637,4737.7541,N,12223.4741,W,2,9,0.80,12.40,M,*22
$GPGLL,4737.7541,N,12223.4741,W,185637,A,D*58
$GPGSA,A,3,,,,,,,,,,,,,1.7,0.8,1.4*39
$GPGSV,3,1,09,09,09,030,38,11,40,291,38,14,72,065,38,18,15,092,38*7A
$GPGSV,3,2,09,19,23,233,37,22,45,087,40,24,35,305,40,31,20,159,36*7E
$HCHDG,77.2,0.0,E,16.9,E*4E
$IIMWD,172.59,T,,,0.19,N,0.10,M*16
